# LAS format log file from PETREL
# Project units are specified as depth units
#==================================================================
~Version information
VERS.   2.0:
WRAP.   NO:
#==================================================================
~Well
STRT .m      197.51040000 :
STOP .m      951.89040000 :
STEP .m     0.15240000 :
NULL .        -999.250000 :
COMP.           : COMPANY
WELL.  P-135   : WELL
FLD.            : FIELD
LOC.            : LOCATION
SRVC.           : SERVICE COMPANY
DATE.  2014-09-16 16:30:35   : Log Export Date {yyyy-MM-dd HH:mm:ss}
PROV.           : PROVINCE
UWI.      : UNIQUE WELL ID
API.            : API NUMBER
#==================================================================
~Curve
DEPT .m                   : DEPTH
Sonic_despiked .us/ft     : Sonic_despiked
RHOB_despiked .g/cm3      : RHOB_despiked
TWT .ms                   : TWT
~Parameter
#==================================================================
~Ascii
# ...
 680.77080000 60.270988464 2.6195130348 241.44694519
 680.92320000 60.248851776 2.6194450855 241.50706482
 681.07560000 60.226715088 2.6196179390 241.56718445
 681.22800000 60.204582214 2.6187980175 241.62731934
 681.38040000 60.182445526 2.6181077957 241.68743896
 681.53280000 60.160308838 2.6162929535 241.74755859
 681.68520000 60.138175964 2.6115601063 241.80767822
 681.83760000 60.166107178 2.6118669510 241.86779785
 681.99000000 60.194042206 2.6147899628 241.92793274
 682.14240000 60.221973419 2.6239199638 241.98805237
 682.29480000 60.249904633 2.6248106956 242.04817200
 682.44720000 60.277835846 2.6257014275 242.10829163
 682.59960000 60.305770874 2.6265921593 242.16841125
 682.75200000 60.333702087 2.6161589622 242.22854614
 682.90440000 60.361633301 2.6033799648 242.28866577
 683.05680000 60.389568329 2.6040360928 242.34878540
 683.20920000 60.417499542 2.6046924591 242.40890503
 683.36160000 60.396553040 2.6053485870 242.46903992
 683.51400000 60.375606537 2.6060049534 242.52915955
 683.66640000 60.354660034 2.6066610813 242.58927917
 683.81880000 60.333713531 2.6073174477 242.64939880
 683.97120000 60.312767029 2.6079735756 242.70951843
 684.12360000 60.291820526 2.6086299419 242.76965332
 684.27600000 60.288993835 2.6163411140 242.82977295
 684.42840000 60.269252777 2.6197910309 242.88989258
 684.58080000 60.249515533 2.6202881336 242.95001221
 684.73320000 60.229778290 2.6225371361 243.01014709
 684.88560000 60.210037231 2.6247859001 243.07026672
 685.03800000 60.190299988 2.6150200367 243.13038635
 685.19040000 60.170562744 2.6079928875 243.19050598
 685.34280000 60.150825500 2.6146941185 243.25062561
 685.49520000 60.131084442 2.6190061569 243.31076050
 685.64760000 60.111347198 2.6190810204 243.37088013
 685.80000000 60.115806580 2.6174550056 243.43099976
 685.95240000 60.120269775 2.6178939342 243.49111938
 686.10480000 60.124729156 2.6217401028 243.55123901
 686.25720000 60.129188538 2.6204566956 243.61137390
 686.40960000 60.133647919 2.6191735268 243.67149353
 686.56200000 60.138111115 2.6178901196 243.73161316
 686.71440000 60.142570496 2.6166069508 243.79173279
 686.86680000 60.147029877 2.6049051285 243.85186768
 687.01920000 60.151493073 2.6005520821 243.91198730
 687.17160000 60.155952454 2.5966589451 243.97210693
 687.32400000 60.160411835 2.5983774662 244.03222656
 687.47640000 60.164875031 2.6000959873 244.09234619
 687.62880000 60.169334412 2.6018145084 244.15248108
 687.78120000 60.173793793 2.6035327911 244.21260071
 687.93360000 60.178253174 2.6052513123 244.27272034
 688.08600000 60.182716370 2.6069698334 244.33283997
 688.23840000 60.187175751 2.6086883545 244.39297485
 688.39080000 60.125438690 2.6104068756 244.45309448
 688.54320000 60.063705444 2.6125371456 244.51321411
 688.69560000 59.910572052 2.6113851070 244.57333374
 688.84800000 60.042797089 2.6074149609 244.63345337
 689.00040000 60.058769226 2.6010339260 244.69358826
 689.15280000 59.815933228 2.6028580666 244.75370789
 689.30520000 59.800079346 2.6046819687 244.81382751
 689.45760000 59.784221649 2.6065061092 244.87394714
 689.61000000 59.768367767 2.6213629246 244.93408203
 689.76240000 59.752513885 2.6231310368 244.99420166
 689.91480000 59.736660004 2.6248991489 245.05432129
 690.06720000 59.720802307 2.6266672611 245.11444092
 690.21960000 59.704948425 2.6241717339 245.17456055
 690.37200000 59.736022949 2.6216764450 245.23469543
 690.52440000 59.767101288 2.6191809177 245.29481506
 690.67680000 59.798175812 2.6110479832 245.35493469
 690.82920000 59.829254150 2.6030700207 245.41505432
 690.98160000 59.844585419 2.6023259163 245.47517395
 691.13400000 59.873691559 2.6034770012 245.53530884
 691.28640000 59.902801514 2.6111240387 245.59542847
 691.43880000 59.931907654 2.6254570484 245.65554810
 691.59120000 59.961017609 2.6242721081 245.71566772
 691.74360000 59.885417938 2.6230869293 245.77580261
 691.89600000 59.809814453 2.6219019890 245.83592224
 692.04840000 59.734214783 2.6181669235 245.89604187
 692.20080000 59.658611298 2.6234140396 245.95616150
 692.35320000 59.583011627 2.6250994205 246.01628113
 692.50560000 59.581321716 2.6267845631 246.07641602
 692.65800000 59.579635620 2.6284699440 246.13653564
 692.81040000 59.577945709 2.6235470772 246.19665527
 692.96280000 59.646648407 2.6235804558 246.25677490
 693.11520000 59.633125305 2.6236135960 246.31690979
 693.26760000 59.619602203 2.6236469746 246.37702942
 693.42000000 59.606079102 2.6191508770 246.43714905
 693.57240000 59.592556000 2.6179790497 246.49726868
 693.72480000 59.579032898 2.6226940155 246.55738831
 693.87720000 59.565509796 2.6267685890 246.61752319
 694.02960000 59.589313507 2.6266939640 246.67764282
 694.18200000 59.601955414 2.6266195774 246.73776245
 694.33440000 59.614593506 2.6265449524 246.79788208
 694.48680000 59.627235413 2.6205940247 246.85800171
 694.63920000 59.639873505 2.6147470474 246.91813660
 694.79160000 59.652511597 2.6097710133 246.97825623
 694.94400000 59.665153503 2.6085157394 247.03837585
 695.09640000 59.677795410 2.6072604656 247.09849548
 695.24880000 59.690433502 2.6060051918 247.15863037
 695.40120000 59.703071594 2.6047499180 247.21875000
 695.55360000 59.715713501 2.6256370544 247.27886963
 695.70600000 59.728355408 2.6252708435 247.33898926
 695.85840000 59.740993500 2.6249043941 247.39910889
 696.01080000 59.725185394 2.6245381832 247.45924377
 696.16320000 59.709377289 2.6241719723 247.51936340
 696.31560000 59.693565369 2.6238057613 247.57948303
 696.46800000 59.677757263 2.6234393120 247.63960266
 696.62040000 59.661949158 2.6230731010 247.69973755
 696.77280000 59.602996826 2.6186909676 247.75985718
 696.92520000 59.608440399 2.6178870201 247.81997681
 697.07760000 59.613883972 2.6196019650 247.88009644
 697.23000000 59.646938324 2.6156690121 247.94021606
 697.38240000 59.661582947 2.6032600403 248.00035095
 697.53480000 59.674472809 2.6010339260 248.06044006
 697.68720000 59.687358856 2.6012618542 248.12034607
 697.83960000 59.700248718 2.6045310497 248.18025208
 697.99200000 59.713134766 2.5932281017 248.24015808
 698.14440000 59.726024628 2.5951371193 248.30006409
 698.29680000 59.738910675 2.5970458984 248.35997009
 698.44920000 59.751800537 2.5989549160 248.41989136
 698.60160000 59.786411285 2.6008639336 248.47979736
 698.75400000 59.821022034 2.6122400761 248.53970337
 698.90640000 59.855636597 2.6128292084 248.59960938
 699.05880000 59.890247345 2.6089370251 248.65951538
 699.21120000 59.924858093 2.6011397839 248.71942139
 699.36360000 59.959472656 2.6046769619 248.77932739
 699.51600000 59.994083405 2.6050829887 248.83924866
 699.66840000 60.028694153 2.6095049381 248.89915466
 699.82080000 59.946662903 2.6114740372 248.95906067
 699.97320000 59.968315125 2.6084051132 249.01896667
 700.12560000 59.989963531 2.6017079353 249.07887268
 700.27800000 60.011615753 2.5912361145 249.13877869
 700.43040000 59.879695892 2.5871980190 249.19869995
 700.58280000 59.902061462 2.5883400440 249.25860596
 700.73520000 59.924423218 2.5993812084 249.31851196
 700.88760000 59.946788788 2.5984890461 249.37841797
 701.04000000 59.969154358 2.5950691700 249.43832397
 701.19240000 59.913074493 2.5914850235 249.49822998
 701.34480000 59.919750214 2.5943310261 249.55815125
 701.49720000 59.926425934 2.5993711948 249.61805725
 701.64960000 59.936244965 2.5895690918 249.67796326
 701.80200000 59.946067810 2.5864009857 249.73786926
 701.95440000 59.955886841 2.5833010674 249.79777527
 702.10680000 59.965705872 2.5916898251 249.85768127
 702.25920000 59.975528717 2.5887780190 249.91758728
 702.41160000 59.985347748 2.5857920647 249.97750854
 702.56400000 60.020690918 2.5853271484 250.03741455
 702.71640000 60.056037903 2.5848619938 250.09732056
 702.86880000 60.091381073 2.5843968391 250.15722656
 703.02120000 60.093242645 2.5839319229 250.21713257
 703.17360000 60.482868195 2.5924770832 250.27703857
 703.32600000 60.489643097 2.5951299667 250.33695984
 703.47840000 60.496417999 2.6024222374 250.39686584
 703.63080000 60.503192902 2.6011221409 250.45677185
