# LAS format log file from PETREL
# Project units are specified as depth units
#==================================================================
~Version information
VERS.   2.0:
WRAP.   YES:
#==================================================================
~Well
STRT .m      197.51040000 :
STOP .m      951.89040000 :
STEP .m     0.15240000 :
NULL .        -999.250000 :
COMP            .                Eastrock Resources LTD.   :COMPANY
WELL            .                Eastrock Lauren #1        :WELL NAME
FLD             .                        Lauren            :FIELD NAME
RIGN            .                    Foragaz #3            :Rig Name
RIGTYP          .                          Land            :Rig Type
SON             .                    BX61-00001            :Service Order Number
SRVC            .                  Schlumberger            :SERVICE COMPANY
DATE            .                    12/30/2011            :LOG DATE(Composite Date for Composite LAP) (MM/DD/YYYY)
CLAB            .                     Province:            :County Label
CNTY            .                   Nova Scotia            :COUNTY
SLAB            .                                          :State/Province Label
STAT            .                                          :STATE or PROVINCE
PROV            .                                          :STATE or PROVINCE
CTRY            .                        Canada            :COUNTRY
CONT_REGION     .                    N. America            :Continent Region
SECT            .                       -999.25            :Section
TOWN            .                    Springhill            :Township
RANG            .                       -999.25            :Range
API             .                        435655            :API NUMBER
UWI             .                       -999.25            :UNIQUE WELL ID
LUL             .                          CANS            :Logging Unit Location
LUN             .                          2316            :Logging Unit Number
LOC             .                    Springhill            :FIELD LOCATION
FL1             .                                          :Field Location Line 1
FL2             .                       -999.25            :Field Location Line 2
LATI            .deg             45∞ 39' 26.518" N         :LATITUDE
LONG            .deg             64∞ 0' 51.347" W          :LONGITUDE
PDAT            .                            GL            :Local Permanent Datum
LMF             .                            KB            :Logging Measured From
APD             .m                      4.00000            :Elevation of Depth Reference (LMF) Above Permanent Datum
EPD             .m                    119.00000            :Elevation of Permanent Datum (PDAT) above Mean Sea Level
EKB             .m                    123.00000            :Elevation of Kelly Bushing Above Permanent Datum
EDF             .m                    122.70000            :Elevation of Drill Floor Above Permanent Datum
EGL             .m                    119.00000            :Elevation of Ground Level Above Permanent Datum
ECF             .m                      -999.25            :Elevation of Casing Flange above Permanent Datum
#--------------------------------------------------
#==================================================================
~Curve
DEPT .m                   : DEPTH
CALI .in                  : Caliper
DT .us/ft                 : Delta-t P-sonic
DTS .us/ft                : Delta-t Shear-sonic
DPHI_SAN .m3/m3           : Density Porosity (Sandstone)
DPHI_LIM .m3/m3           : Density Porosity (Limestone)
DPHI_DOL .m3/m3           : Density Porosity (Dolomite)
NPHI_SAN .m3/m3           : Enhanced Thermal Neutron Porosity (Sandstone)
NPHI_LIM .m3/m3           : Enhanced Thermal Neutron Porosity (Limestone)
NPHI_DOL .m3/m3           : Enhanced Thermal Neutron Porosity (Dolomite)
AMF .ohm.m                : Array Induction Mud Resistivity Fully Calibrated
AF90 .ohm.m               : Array Induction Four Foot Resistivity A90
AF10 .ohm.m               : Array Induction Four Foot Resistivity A10
AF20 .ohm.m               : Array Induction Four Foot Resistivity A20
AF60 .ohm.m               : Array Induction Four Foot Resistivity A60
AF30 .ohm.m               : Array Induction Four Foot Resistivity A30
RXOZ .ohm.m               : Invaded Formation Resistivity filtered at 18 inches
GR .gAPI                  : Gamma Ray
POTA .gAPI                : POTA (percent)
THOR .gAPI                : THOR (percent)
URAN .gAPI                : URAN (percent)
SP .mV                    : SP
RHOB .g/cm3               : RHOB
~Parameter
#==================================================================
~Ascii
# ...
 831.18960000
 6.3145589828 60.946983337 106.70149231 0.0420400016 0.0756499991 0.1506199986
 0.1347299963 0.0939799994 0.0352899991 1.3746800423 45.963211060 39.094200134
 40.908939362 44.468379974 41.797039032 31.148660660 139.71769714 3.0667200089
 14.698670387 4.9461102486 -428.1441956 2.5806319714
 831.34200000
 6.2841491699 60.807628632 107.33383179 0.0382700004 0.0720100030 0.1412899941
 0.1404899955 0.0996899977 0.0386600010 1.3749599457 44.672420502 38.298480988
 40.180091858 42.617519379 40.679199219 27.932220459 137.50939941 2.9768400192
 14.300450325 4.9459199905 -426.6490173 2.5868601799
 831.49440000
 6.2879528999 60.323608398 107.08644867 0.0358900018 0.0697200000 0.1377699971
 0.1464000046 0.1055599973 0.0422499999 1.3752299547 44.126789093 38.005691528
 40.009201050 41.783359528 40.189170837 31.789020538 134.98179626 2.8622598648
 14.170829773 4.8482103348 -425.0045166 2.5907859802
 831.64680000
 6.3221611977 60.118843079 107.06173706 0.0312200002 0.0652099997 0.1327999979
 0.1543900073 0.1134800017 0.0473500006 1.3747400045 44.456378937 38.516860962
 40.626209259 41.767368317 40.539710999 39.324539185 131.64450073 2.7546298504
 13.528260231 4.9187602997 -423.5528870 2.5984899998
 831.79920000
 6.3069567680 60.122959137 107.30837250 0.0275299996 0.0616500005 0.1310199946
 0.1615799963 0.1206099987 0.0521700010 1.3742500544 44.462181091 39.109989166
 41.545860291 41.982521057 41.094181061 42.134689331 126.75550079 2.6400399208
 13.213870049 4.6515302658 -424.0625000 2.6045768261
 831.95160000
 6.3905749321 60.603748322 107.40645599 0.0241100006 0.0583500005 0.1243600026
 0.1623899937 0.1214200035 0.0527300015 1.3728200197 44.383628845 40.142631531
 42.502540588 42.302661896 41.684528351 45.660888672 124.83630371 2.6326301098
 13.254980087 4.3332896233 -424.9329834 2.6102180481
 832.10400000
 6.4133782387 60.918762207 107.39064026 0.0259700008 0.0601399988 0.1319199950
 0.1581999958 0.1172600016 0.0498699993 1.3713799715 44.475681305 41.259880066
 43.302368164 42.745319366 42.297950745 46.598918915 124.10900116 2.6660301685
 13.094960213 4.1413497925 -424.4375000 2.6071560383
 832.25640000
 6.4133782387 61.294700623 107.55294800 0.0318199992 0.0657899976 0.1311700046
 0.1489900053 0.1081200019 0.0438699983 1.3695100546 44.450069427 42.484649658
 44.364719391 43.109050751 43.122421265 51.773441315 127.42620087 2.7360200882
 13.873169899 4.1754903793 -424.6160889 2.5975000858
 832.40880000
 6.3373622894 61.570087433 107.60570526 0.0369700007 0.0707599968 0.1266700029
 0.1455799937 0.1047400013 0.0417400002 1.3676400185 44.418220520 43.512081146
 45.301090240 43.752361298 43.977569580 57.231731415 126.72689819 2.7230701447
 13.762360573 4.1549801826 -424.7901917 2.5890009403
 832.56120000
 6.3449645042 61.070945740 107.55322266 0.0412199982 0.0748599991 0.1465200037
 0.1449200064 0.1040899977 0.0413400009 1.3664799929 44.800678253 44.211261749
 45.716331482 44.229320526 44.400669098 56.553558350 128.23249817 2.7857799530
 14.303799629 3.9323198795 -424.2163086 2.5819880962
 832.71360000
 6.3221611977 60.851978302 106.39827728 0.0372899994 0.0710700005 0.1492599994
 0.1464100033 0.1055700034 0.0422599986 1.3653199673 44.949108124 44.645210266
 45.837120056 44.398059845 44.503398895 48.072429657 128.81350708 2.7230498791
 15.132450104 3.9031102657 -424.2142944 2.5884649754
 832.86600000
 6.3221611977 60.673976898 105.61606598 0.0324099995 0.0663599968 0.1308200061
 0.1420599967 0.1012500003 0.0395999998 1.3650300503 44.645648956 44.962299347
 46.001930237 44.288311005 44.655761719 49.069240570 132.20570374 2.7688601017
 15.644849777 4.0715198517 -423.5223083 2.5965309143
 833.01840000
 6.3221611977 60.627342224 105.84024811 0.0261799991 0.0603500009 0.1313000023
 0.1402300000 0.0994400010 0.0384999998 1.3647400141 44.551849365 45.369838715
 46.098079681 44.295310974 44.732280731 53.330188751 131.32409668 2.8289399147
 15.325530052 4.0029797554 -423.5912781 2.6068029404
 833.17080000
 6.3449645042 60.939395905 105.30306244 0.0253899992 0.0595900007 0.1246500015
 0.1419100016 0.1010999978 0.0395100005 1.3638299704 44.454311371 45.951759338
 46.494419098 44.360050201 45.112628937 54.255451202 135.72050476 2.8998799324
 16.432760239 4.1518201828 -423.7455139 2.6081049442
 833.32320000
 6.3981771469 60.312240601 105.82275391 0.0275800005 0.0617000014 0.1276800036
 0.1440500021 0.1032200009 0.0408100002 1.3629200459 44.481159210 46.646240234
 47.007488251 44.597259521 45.505840302 59.469570160 138.48420715 3.0365099907
 17.035890579 3.8540902138 -422.9463806 2.6044919491
 833.47560000
 6.3677678108 59.955226898 105.81037903 0.0313500017 0.0653299987 0.1348399967
 0.1329800040 0.0922399983 0.0342900008 1.3634799719 44.669620514 47.376518250
 47.600509644 45.056411743 46.134319305 72.556739807 142.88319397 3.1890897751
 17.853101730 3.7664198875 -421.2596130 2.5982799530
 833.62800000
 6.3753705025 59.681243896 105.96393585 0.0320999995 0.0660599992 0.1386899948
 0.1260299981 0.0853499994 0.0304499995 1.3640400171 44.966308594 47.966159821
 48.169708252 45.688251495 46.777618408 104.62439728 139.89329529 3.0498900414
 17.471849442 3.8561997414 -420.6160889 2.5970411301
 833.78040000
 6.4019765854 59.052318573 105.27014160 0.0253199991 0.0595199987 0.1288399994
 0.1212899983 0.0806500018 0.0279300008 1.3639299870 45.130790710 48.158538818
 48.231910706 46.139228821 46.931209564 107.62550354 134.71609497 2.9826900959
 17.105379105 3.5570299625 -420.8438110 2.6082141399
 833.93280000
 6.3791728020 59.160583496 104.87756348 0.0142599996 0.0488499999 0.1154899970
 0.1325699985 0.0918399990 0.0340600014 1.3638199568 45.026729584 47.766349792
 47.653549194 45.950229645 46.399909973 69.613029480 132.53550720 2.9329798222
 16.189519882 3.6992897987 -421.0847778 2.6264688969
 834.08520000
 6.2917518616 59.760791779 105.26810455 0.0114700003 0.0461600013 0.1179300025
 0.1383399963 0.0975600034 0.0373799987 1.3626899719 44.045860291 46.333419800
 46.500659943 44.608741760 45.220340729 56.532169342 128.54179382 2.8795800209
 16.235481262 3.2951900959 -421.8125000 2.6310667992
 834.23760000
 6.2993545532 60.268959045 105.75975037 0.0105299996 0.0452499986 0.1144199967
 0.1484799981 0.1076200008 0.0435499996 1.3615599871 43.317081451 45.407848358
 45.242698669 43.656848907 43.908908844 50.743080139 127.51689911 2.8954200745
 16.298151016 3.1742699146 -421.5579834 2.6326251030
 834.39000000
 6.3601694107 60.921260834 105.87599945 0.0171200000 0.0516100004 0.1263599992
 0.1538400054 0.1129299998 0.0469800010 1.3614399433 42.234371185 44.631340027
 44.433620453 42.595260620 43.007610321 42.571041107 124.92630005 2.8724598885
 15.580690384 3.1709301472 -419.9107056 2.6217501163
 834.54240000
 6.3297600746 60.886848450 107.10671997 0.0205899999 0.0549600013 0.1278900057
 0.1586800069 0.1177399978 0.0502000004 1.3613200188 41.884860992 44.654010773
 44.459449768 42.280540466 42.948059082 37.855560303 126.40039825 2.9678499699
 15.823259354 3.0918500423 -417.9018250 2.6160230637
 834.69480000
 6.3449645042 60.823448181 107.46168518 0.0230500009 0.0573199987 0.1229100004
 0.1571799964 0.1162500009 0.0491899997 1.3592300415 42.874519348 46.158821106
 45.440158844 42.876770020 43.850841522 39.833511353 126.16390228 2.8710198402
 15.552859306 3.4397001266 -416.3481750 2.6119751930
 834.84720000
 6.3449645042 60.395298004 106.82127380 0.0159499999 0.0504800007 0.1241500005
 0.1565400064 0.1156100035 0.0487600006 1.3571399450 44.426559448 47.739189148
 47.572490692 44.382240295 45.622539520 48.286201477 125.28520203 2.8629100323
 15.112779617 3.4190599918 -415.8036194 2.6236789227
 834.99960000
 6.3677678108 60.018867493 106.10237122 0.0104499999 0.0451700017 0.1147900000
 0.1585000008 0.1175599992 0.0500800014 1.3554300070 46.418598175 49.392040253
 49.396381378 45.838840485 47.452499390 57.793369293 123.66400146 2.8248000145
 15.150460243 3.3822901249 -416.2411194 2.6327571869
 835.15200000
 6.3525667191 60.036029816 105.68232727 0.0075800000 0.0423999988 0.1079600006
 0.1538500041 0.1129499972 0.0469999984 1.3537199497 47.592369080 50.904838562
 50.973968506 47.003860474 48.877418518 63.636810303 125.19879913 2.9017999172
 14.966820717 3.4763200283 -416.9821167 2.6374990940
