# LAS format log file from PETREL
# Project units are specified as depth units
#==================================================================
~Version information
VERS.   2.0:
WRAP.   YES:
#==================================================================
~Well
STRT .m      197.51040000 :
STOP .m      951.89040000 :
STEP .m     0.15240000 :
NULL .        -999.250000 :
COMP            .                Eastrock Resources LTD.   :COMPANY
WELL            .                Eastrock Lauren #1        :WELL NAME
FLD             .                        Lauren            :FIELD NAME
RIGN            .                    Foragaz #3            :Rig Name
RIGTYP          .                          Land            :Rig Type
SON             .                    BX61-00001            :Service Order Number
SRVC            .                  Schlumberger            :SERVICE COMPANY
DATE            .                    12/30/2011            :LOG DATE(Composite Date for Composite LAP) (MM/DD/YYYY)
CLAB            .                     Province:            :County Label
CNTY            .                   Nova Scotia            :COUNTY
SLAB            .                                          :State/Province Label
STAT            .                                          :STATE or PROVINCE
PROV            .                                          :STATE or PROVINCE
CTRY            .                        Canada            :COUNTRY
CONT_REGION     .                    N. America            :Continent Region
SECT            .                       -999.25            :Section
TOWN            .                    Springhill            :Township
RANG            .                       -999.25            :Range
API             .                        435655            :API NUMBER
UWI             .                       -999.25            :UNIQUE WELL ID
LUL             .                          CANS            :Logging Unit Location
LUN             .                          2316            :Logging Unit Number
LOC             .                    Springhill            :FIELD LOCATION
FL1             .                                          :Field Location Line 1
FL2             .                       -999.25            :Field Location Line 2
LATI            .deg             45∞ 39' 26.518" N         :LATITUDE
LONG            .deg             64∞ 0' 51.347" W          :LONGITUDE
PDAT            .                            GL            :Local Permanent Datum
LMF             .                            KB            :Logging Measured From
APD             .m                      4.00000            :Elevation of Depth Reference (LMF) Above Permanent Datum
EPD             .m                    119.00000            :Elevation of Permanent Datum (PDAT) above Mean Sea Level
EKB             .m                    123.00000            :Elevation of Kelly Bushing Above Permanent Datum
EDF             .m                    122.70000            :Elevation of Drill Floor Above Permanent Datum
EGL             .m                    119.00000            :Elevation of Ground Level Above Permanent Datum
ECF             .m                      -999.25            :Elevation of Casing Flange above Permanent Datum
#--------------------------------------------------
#==================================================================
~Curve
DEPT .m                   : DEPTH
CALI .in                  : Caliper
DT .us/ft                 : Delta-t P-sonic
DTS .us/ft                : Delta-t Shear-sonic
DPHI_SAN .m3/m3           : Density Porosity (Sandstone)
DPHI_LIM .m3/m3           : Density Porosity (Limestone)
DPHI_DOL .m3/m3           : Density Porosity (Dolomite)
NPHI_SAN .m3/m3           : Enhanced Thermal Neutron Porosity (Sandstone)
NPHI_LIM .m3/m3           : Enhanced Thermal Neutron Porosity (Limestone)
NPHI_DOL .m3/m3           : Enhanced Thermal Neutron Porosity (Dolomite)
AMF .ohm.m                : Array Induction Mud Resistivity Fully Calibrated
AF90 .ohm.m               : Array Induction Four Foot Resistivity A90
AF10 .ohm.m               : Array Induction Four Foot Resistivity A10
AF20 .ohm.m               : Array Induction Four Foot Resistivity A20
AF60 .ohm.m               : Array Induction Four Foot Resistivity A60
AF30 .ohm.m               : Array Induction Four Foot Resistivity A30
RXOZ .ohm.m               : Invaded Formation Resistivity filtered at 18 inches
GR .gAPI                  : Gamma Ray
POTA .gAPI                : POTA (percent)
THOR .gAPI                : THOR (percent)
URAN .gAPI                : URAN (percent)
SP .mV                    : SP
RHOB .g/cm3               : RHOB
~Parameter
#==================================================================
~Ascii
# ...
 357.98760000
 6.3905749321 60.537513733 107.40570068 0.0682900026 0.1009799987 0.1591999978
 0.1080100015 0.0674699992 0.0212900005 1.5299199820 40.345371246 65.578033447
 54.050910950 40.945079803 47.577548981 170.15390015 167.67860413 3.3763501644
 23.294809341 4.3031702042 -412.9096985 2.5373268127
 358.14000000
 6.2651457787 60.439918518 106.08679962 0.0664900020 0.0992399976 0.1562200040
 0.1014799997 0.0609899983 0.0182399992 1.5301599503 42.704708099 69.738288879
 59.369800568 43.845718384 51.721099854 145.89830017 172.29159546 3.4361798763
 23.844169617 4.5112199783 -412.0845947 2.5402970314
 358.29240000
 6.2195353508 60.636119843 104.42533875 0.0648899972 0.0976999998 0.1549800038
 0.1058200002 0.0653000027 0.0202500001 1.5311000347 43.150989532 70.676559448
 60.611579895 44.390541077 52.586429596 153.02850342 170.30889893 3.4003198147
 24.293800354 4.1858401299 -411.7169189 2.5429279804
 358.44480000
 6.2309412956 61.142452240 105.02655029 0.0583899990 0.0914300010 0.1646600068
 0.1058700010 0.0653500035 0.0202699993 1.5320400000 42.195678711 69.247741699
 59.234378815 43.639850616 51.650440216 179.36579895 168.40649414 3.2892000675
 23.420310974 4.4484400749 -411.3542175 2.5536539555
 358.59720000
 6.2765474319 61.633605957 105.37764740 0.0540399998 0.0872299969 0.1556600034
 0.1079799980 0.0674400032 0.0212699994 1.5310900211 40.564331055 66.921478271
 57.000629425 42.547679901 50.253391266 233.75079346 167.29179382 3.1873400211
 22.732610703 4.7361598015 -410.5971985 2.5608348846
 358.74960000
 6.2765474319 61.107093811 105.45601654 0.0543799996 0.0875599980 0.1616899967
 0.1062899977 0.0657600015 0.0204700008 1.5301500559 40.094799042 64.250236511
 54.696548462 41.422309875 48.697780609 175.54930115 171.54710388 3.2855801582
 23.749469757 4.6629595757 -409.7352905 2.5602748394
 358.90200000
 6.2993545532 60.419864655 106.18012238 0.0542000011 0.0873799995 0.1593199968
 0.1004699990 0.0599900000 0.0177800003 1.5288100243 39.396499634 61.787639618
 52.830070496 40.713951111 47.688579559 266.10339355 177.39759827 3.4962899685
 23.816450119 4.9308800697 -408.3054810 2.5605769157
 359.05440000
 6.2765474319 59.706081390 105.07690430 0.0516100004 0.0848900005 0.1462599933
 0.0953899994 0.0549499989 0.0155100003 1.5274699926 38.884708405 59.225811005
 50.847259521 40.013870239 46.658050537 359.16281128 178.00810242 3.6128401756
 23.757629395 4.6953501701 -406.8162231 2.5648360252
 359.20680000
 6.2879528999 59.202831268 104.75360107 0.0483499989 0.0817399994 0.1448400021
 0.0908100009 0.0504000001 0.0135300001 1.5234299898 38.631519318 57.591739655
 49.296161652 39.565639496 45.926498413 706.62579346 174.49130249 3.6291499138
 21.874080658 4.8892798424 -405.4861145 2.5702309608
 359.35920000
 6.3221611977 59.373394012 105.33238983 0.0523199998 0.0855799988 0.1530999988
 0.1043799967 0.0638599992 0.0195700005 1.5194000006 39.049709320 57.510288239
 48.805740356 39.801639557 46.082839966 430.07058716 165.84860229 3.5818598270
 20.003540039 4.6658000946 -404.7206116 2.5636639595
 359.51160000
 6.3221611977 60.225006104 105.74703979 0.0601999983 0.0931800008 0.1647700071
 0.1194100007 0.0787800029 0.0269499999 1.5225199461 40.685958862 58.654251099
 49.851181030 41.241111755 47.861198425 130.88040161 159.69940186 3.5109400749
 19.641248703 4.1296296120 -404.7603760 2.5506670475
 359.66400000
 6.3677678108 59.814807892 105.77368164 0.0649499968 0.0977500007 0.1726499945
 0.1232699975 0.0826100037 0.0289699994 1.5256400108 42.554279327 59.617439270
 51.309249878 43.320159912 50.050460815 92.212471008 155.21319580 3.3729400635
 19.001230240 4.1065001488 -405.1213074 2.5428390503
 359.81640000
 6.3107562065 59.660728455 107.18011475 0.0623999983 0.0952999964 0.1603499949
 0.1081700027 0.0676300004 0.0213699993 1.5265200138 44.278331757 59.928421021
 52.406440735 45.220821381 51.804519653 112.70839691 156.12739563 3.4645199776
 18.834909439 4.1227598190 -405.3958130 2.5470340252
 359.96880000
 6.2993545532 60.156700134 107.80072021 0.0516300015 0.0848999992 0.1410100013
 0.0905700028 0.0501700006 0.0134300003 1.5274000168 44.582721710 57.714420319
 51.187259674 45.428871155 51.117389679 287.89279175 155.97250366 3.5181999207
 18.223310471 4.2878599167 -405.5588074 2.5648138523
 360.12120000
 6.2879528999 61.098743439 108.22023773 0.0448700003 0.0783800036 0.1451299936
 0.0937300026 0.0533000007 0.0147900004 1.5246499777 42.162361145 51.593479156
 47.333698273 43.159538269 47.500850677 281.14440918 152.57290649 3.5234398842
 17.799749374 4.1174297333 -405.8309021 2.5759699345
 360.27360000
 6.3449645042 61.705051422 108.69643402 0.0441900007 0.0777300000 0.1500300020
 0.1101099998 0.0695500001 0.0222999994 1.5218900442 38.926601410 44.679298401
 42.389209747 39.605030060 42.628288269 123.36119843 149.99429321 3.5885698795
 18.489099503 3.4450900555 -406.8860168 2.5770869255
 360.42600000
 6.3221611977 62.581474304 109.62601471 0.0461600013 0.0796200037 0.1623699963
 0.1318199933 0.0910900012 0.0336400010 1.5212899446 36.378890991 40.223838806
 38.920799255 37.010578156 38.909751892 86.589416504 145.93809509 3.4848999977
 17.564380646 3.4531600475 -408.2673950 2.5738430023
 360.57840000
 6.4019765854 63.542694092 110.37813568 0.0517800003 0.0850500017 0.1607400030
 0.1396699995 0.0988800004 0.0381699987 1.5206899643 34.535488129 36.503540039
 36.017230988 34.693859100 35.663059235 79.293571472 144.68209839 3.3832597733
 17.151781082 3.6495301723 -410.1139832 2.5645658970
 360.73080000
 6.3221611977 65.123298645 111.02022552 0.0578400008 0.0908999965 0.1500699967
 0.1412599981 0.1004600003 0.0391199999 1.5206799507 33.474578857 34.539138794
 34.510101318 33.399440765 33.815780640 86.660797119 142.75549316 3.3641598225
 16.653511047 3.6464099884 -410.9028015 2.5545580387
 360.88320000
 6.3221611977 64.249824524 111.31747437 0.0731000006 0.1056199968 0.1695200056
 0.1366499960 0.0958900005 0.0364000015 1.5206799507 33.283439636 33.990180969
 34.203750610 32.848869324 33.210781097 130.93559265 144.47259521 3.4107398987
 17.963560104 3.2553100586 -411.3199158 2.5293889046
 361.03560000
 6.4361853600 63.450920105 109.72568512 0.0778800026 0.1102299988 0.1726299971
 0.1312099993 0.0904899985 0.0333000012 1.5210499763 33.855499268 34.562240601
 35.179931641 32.913951874 33.759361267 111.81069946 152.06910706 3.5000000000
 19.039829254 3.6210498810 -411.6286926 2.5215060711
 361.18800000
 6.4475865364 62.477996826 109.45548248 0.0775900036 0.1099499986 0.1714999974
 0.1294199973 0.0887100026 0.0322999991 1.5214300156 34.940311432 36.237880707
 36.812858582 33.718208313 34.789680481 72.703483582 156.59219360 3.6564600468
 18.725109100 4.0069799423 -412.0000000 2.5219800472
 361.34040000
 6.2651457787 62.921356201 109.01113892 0.0707800016 0.1033800021 0.1737399995
 0.1276199967 0.0869200006 0.0313099995 1.5239900351 35.622539520 38.766178131
 38.864860535 34.463489532 36.078350067 59.597488403 159.04550171 3.8348100185
 18.560880661 4.0621500015 -412.1701050 2.5332210064
 361.49280000
 6.3677678108 62.307582855 108.39138794 0.0685100034 0.1011900008 0.1661799997
 0.1253799945 0.0847000033 0.0300900005 1.5265500546 36.460571289 41.663150787
 41.229160309 35.163669586 37.569408417 60.859088898 156.61489868 3.7105197906
 18.868360519 3.9389202595 -412.0331116 2.5369620323
 361.64520000
 6.4589881897 61.963279724 107.83165741 0.0683600008 0.1010499969 0.1702000052
 0.1240999997 0.0834299996 0.0294100009 1.5284600258 37.053138733 45.040248871
 43.462139130 35.628379822 38.930900574 73.376480103 155.66709900 3.7546098232
 18.872249603 3.6795899868 -411.6949158 2.5371999741
 361.79760000
 6.3677678108 61.812923431 107.26033783 0.0668699965 0.0996100008 0.1647399962
 0.1200700030 0.0794299990 0.0272899996 1.5303599834 37.125850677 47.215049744
 44.987209320 35.675670624 39.861480713 78.808158875 157.98019409 3.8291101456
 19.333580017 3.4595000744 -411.5661926 2.5396668911
 361.95000000
 6.2993545532 61.616844177 107.15197754 0.0610900000 0.0940399989 0.1619700044
 0.1124000028 0.0718299970 0.0234200004 1.5288900137 35.553768158 47.843898773
 44.642238617 34.287948608 39.248390198 91.860046387 158.71629333 3.8660700321
 18.672439575 3.7383198738 -411.8958130 2.5491969585
