# LAS format log file from PETREL
# Project units are specified as depth units
#==================================================================
~Version information
VERS.   2.0:
WRAP.   NO:
#==================================================================
~Well
STRT .m      197.51040000 :
STOP .m      951.89040000 :
STEP .m     0.15240000 :
NULL .        -999.250000 :
COMP.           : COMPANY
WELL.  P-135   : WELL
FLD.            : FIELD
LOC.            : LOCATION
SRVC.           : SERVICE COMPANY
DATE.  2014-09-16 16:30:35   : Log Export Date {yyyy-MM-dd HH:mm:ss}
PROV.           : PROVINCE
UWI.      : UNIQUE WELL ID
API.            : API NUMBER
#==================================================================
~Curve
DEPT .m                   : DEPTH
Sonic_despiked .us/ft     : Sonic_despiked
RHOB_despiked .g/cm3      : RHOB_despiked
TWT .ms                   : TWT
~Parameter
#==================================================================
~Ascii
# ...
 841.85760000 59.898780823 2.6161398888 304.84524536
 842.01000000 59.928180695 2.6164698601 304.90533447
 842.16240000 59.895095825 2.6176397800 304.96542358
 842.31480000 59.862007141 2.6213231087 305.02551270
 842.46720000 59.828918457 2.6351468563 305.08560181
 842.61960000 59.795833588 2.6364703178 305.14569092
 842.77200000 59.762744904 2.6377937794 305.20578003
 842.92440000 59.818187714 2.6391172409 305.26586914
 843.07680000 59.873630524 2.6404407024 305.32592773
 843.22920000 59.929073334 2.6417641640 305.38601685
 843.38160000 59.915481567 2.6430876255 305.44610596
 843.53400000 59.907791138 2.6444110870 305.50619507
 843.68640000 59.900100708 2.6457345486 305.56628418
 843.83880000 59.892406464 2.6455614567 305.62637329
 843.99120000 59.884716034 2.6453883648 305.68646240
 844.14360000 59.877025604 2.6452150345 305.74655151
 844.29600000 59.869335175 2.6450419426 305.80664063
 844.44840000 59.861640930 2.6448688507 305.86669922
 844.60080000 59.853950500 2.6446957588 305.92678833
 844.75320000 59.846260071 2.6445226669 305.98687744
 844.90560000 59.838569641 2.6443495750 306.04696655
 845.05800000 59.830879211 2.6441764832 306.10705566
 845.21040000 59.823184967 2.6440031528 306.16714478
 845.36280000 59.815494537 2.6438300610 306.22723389
 845.51520000 59.807804108 2.6436569691 306.28732300
 845.66760000 59.800113678 2.6427907944 306.34738159
 845.82000000 59.792419434 2.6425642967 306.40747070
 845.97240000 59.784729004 2.6423377991 306.46755981
 846.12480000 59.777038574 2.6416499615 306.52764893
 846.27720000 59.712512970 2.6402251720 306.58773804
 846.42960000 59.771659851 2.6372439861 306.64782715
 846.58200000 59.830806732 2.6341259480 306.70791626
 846.73440000 59.902618408 2.6275820732 306.76800537
 846.88680000 59.920429230 2.6159110069 306.82809448
 847.03920000 59.938236237 2.6116449833 306.88815308
 847.19160000 59.956047058 2.6173069477 306.94824219
 847.34400000 59.973854065 2.6234600544 307.00833130
 847.49640000 59.991664886 2.6199951172 307.06842041
 847.64880000 60.009475708 2.6150281429 307.12850952
 847.80120000 60.027282715 2.6132128239 307.18859863
 847.95360000 60.045093536 2.6155991554 307.24868774
 848.10600000 60.062900543 2.6192409992 307.30877686
 848.25840000 60.080711365 2.6137142181 307.36886597
 848.41080000 59.899265289 2.6105589867 307.42892456
 848.56320000 59.783744812 2.6166560650 307.48901367
 848.71560000 60.081230164 2.6338610649 307.54910278
 848.86800000 60.080055237 2.6305088997 307.60919189
 849.02040000 60.078880310 2.6271569729 307.66928101
 849.17280000 60.077705383 2.6092510223 307.72937012
 849.32520000 60.076526642 2.5964331627 307.78945923
 849.47760000 60.075351715 2.5952990055 307.84954834
 849.63000000 60.074176788 2.5941650867 307.90963745
 849.78240000 60.073001862 2.5997500420 307.96969604
 849.93480000 60.071826935 2.6059098244 308.02978516
 850.08720000 60.070652008 2.5979838371 308.08987427
 850.23960000 60.069477081 2.5931451321 308.14996338
 850.39200000 60.068302155 2.5938191414 308.21005249
 850.54440000 60.067123413 2.5970540047 308.27014160
 850.69680000 60.065948486 2.6057479382 308.33023071
 850.84920000 60.064773560 2.6114962101 308.39031982
 851.00160000 60.063598633 2.6155128479 308.45040894
 851.15400000 60.121135712 2.6166369915 308.51046753
 851.30640000 60.178672791 2.6153640747 308.57055664
 851.45880000 60.236213684 2.6128721237 308.63064575
 851.61120000 60.293750763 2.6103799343 308.69073486
 851.76360000 60.351291656 2.6028330326 308.75082397
 851.91600000 60.408828735 2.5999431610 308.81091309
 852.06840000 60.599384308 2.5990359783 308.87100220
 852.22080000 60.627750397 2.6007471085 308.93109131
 852.37320000 60.656112671 2.5909919739 308.99114990
 852.52560000 60.684478760 2.5953378677 309.05123901
 852.67800000 60.712841034 2.5958731174 309.11132813
 852.83040000 60.707901001 2.5898640156 309.17141724
 852.98280000 60.702964783 2.5749180317 309.23150635
 853.13520000 60.698024750 2.5678460598 309.29159546
 853.28760000 60.693088531 2.5716810226 309.35168457
 853.44000000 60.688148499 2.5869269371 309.41177368
 853.59240000 60.683212280 2.5923130512 309.47186279
 853.74480000 60.678272247 2.5996861458 309.53192139
 853.89720000 60.673336029 2.5969150066 309.59201050
 854.04960000 60.464668274 2.6000730991 309.65209961
 854.20200000 60.493659973 2.5860049725 309.71218872
 854.35440000 60.522647858 2.5782330036 309.77227783
 854.50680000 60.551639557 2.5748538971 309.83236694
 854.65920000 60.580627441 2.5795900822 309.89245605
 854.81160000 60.609619141 2.5742971897 309.95254517
 854.96400000 60.714664459 2.5726709366 310.01263428
 855.11640000 60.805892944 2.5710446835 310.07269287
 855.26880000 60.845779419 2.5694184303 310.13278198
 855.42120000 60.885662079 2.5677921772 310.19287109
 855.57360000 61.084877014 2.5661659241 310.25296021
 855.72600000 60.795440674 2.5702090263 310.31304932
 855.87840000 60.832092285 2.5647060871 310.37313843
 856.03080000 60.868743896 2.5646862984 310.43322754
 856.18320000 60.898082733 2.5646662712 310.49331665
 856.33560000 60.932296753 2.5646464825 310.55340576
 856.48800000 60.966506958 2.5646266937 310.61346436
 856.64040000 61.000720978 2.5646066666 310.67355347
 856.79280000 61.034934998 2.5645868778 310.73364258
 856.94520000 61.069149017 2.5640234947 310.79373169
 857.09760000 61.120159149 2.5639259815 310.85382080
 857.25000000 61.171165466 2.5671520233 310.91390991
 857.40240000 61.222171783 2.5772938728 310.97399902
 857.55480000 61.273181915 2.5812990665 311.03408813
 857.70720000 61.324188232 2.5766890049 311.09414673
 857.85960000 61.322265625 2.5775790215 311.15423584
 858.01200000 61.320346832 2.5823180676 311.21432495
 858.16440000 61.318424225 2.5846478939 311.27441406
 858.31680000 61.316501617 2.5828979015 311.33450317
 858.46920000 61.314582825 2.5799598694 311.39459229
 858.62160000 61.312660217 2.5775768757 311.45468140
 858.77400000 61.310737610 2.5752899647 311.51477051
 858.92640000 61.308815002 2.5721950531 311.57485962
 859.07880000 61.306896210 2.5720500946 311.63491821
 859.23120000 61.304973602 2.5776789188 311.69500732
 859.38360000 61.226119995 2.5796349049 311.75509644
 859.53600000 61.369682312 2.5841059685 311.81518555
 859.68840000 61.348270416 2.5856568813 311.87527466
 859.84080000 61.326858521 2.5883479118 311.93536377
 859.99320000 61.305442810 2.5875601768 311.99545288
 860.14560000 61.284030914 2.5848858356 312.05554199
 860.29800000 61.262619019 2.5822114944 312.11563110
 860.45040000 61.241207123 2.5795373917 312.17568970
 860.60280000 61.333789825 2.5768630505 312.23577881
 860.75520000 61.328659058 2.5759401321 312.29586792
 860.90760000 61.323532104 2.5736160278 312.35595703
 861.06000000 61.318405151 2.5712921619 312.41604614
 861.21240000 61.313278198 2.5689680576 312.47613525
 861.36480000 61.308151245 2.5738611221 312.53622437
 861.51720000 61.303020477 2.5691919327 312.59631348
 861.66960000 61.297893524 2.5685620308 312.65640259
 861.82200000 61.292766571 2.5711641312 312.71646118
 861.97440000 61.287639618 2.5754060745 312.77655029
 862.12680000 61.282508850 2.5779020786 312.83663940
 862.27920000 61.277381897 2.5857810974 312.89672852
 862.43160000 61.272254944 2.5846867561 312.95681763
 862.58400000 61.267127991 2.5835924149 313.01690674
 862.73640000 61.262001038 2.5824983120 313.07699585
 862.88880000 61.256870270 2.5814039707 313.13708496
 863.04120000 61.251743317 2.5803096294 313.19717407
 863.19360000 61.246616364 2.5792152882 313.25723267
 863.34600000 61.241489410 2.5781209469 313.31732178
 863.49840000 61.236362457 2.5770266056 313.37741089
 863.65080000 61.231231689 2.5759325027 313.43750000
 863.80320000 61.226104736 2.5748381615 313.49758911
 863.95560000 61.220977783 2.5737438202 313.55767822
 864.10800000 61.215850830 2.5682170391 313.61776733
 864.26040000 61.210723877 2.5675399303 313.67785645
 864.41280000 61.205593109 2.5745639801 313.73791504
 864.56520000 61.200466156 2.5738680363 313.79800415
 864.71760000 61.195339203 2.5649371147 313.85809326
