# LAS format log file from PETREL
# Project units are specified as depth units
#==================================================================
~Version information
VERS.   2.0:
WRAP.   NO:
#==================================================================
~Well
STRT .m      197.51040000 :
STOP .m      951.89040000 :
STEP .m     0.15240000 :
NULL .        -999.250000 :
COMP.           : COMPANY
WELL.  P-135   : WELL
FLD.            : FIELD
LOC.            : LOCATION
SRVC.           : SERVICE COMPANY
DATE.  2014-09-16 16:30:35   : Log Export Date {yyyy-MM-dd HH:mm:ss}
PROV.           : PROVINCE
UWI.      : UNIQUE WELL ID
API.            : API NUMBER
#==================================================================
~Curve
DEPT .m                   : DEPTH
Sonic_despiked .us/ft     : Sonic_despiked
RHOB_despiked .g/cm3      : RHOB_despiked
TWT .ms                   : TWT
~Parameter
#==================================================================
~Ascii
# ...
 335.58480000 67.865135193 2.4935984612 96.394294739
 335.73720000 67.854103088 2.4970872402 96.462425232
 335.88960000 67.843070984 2.5005762577 96.530555725
 336.04200000 67.832038879 2.5040650368 96.598686218
 336.19440000 67.821014404 2.4991230965 96.666824341
 336.34680000 67.809982300 2.5027010441 96.734954834
 336.49920000 67.798950195 2.5118610859 96.803085327
 336.65160000 67.787918091 2.5096111298 96.871215820
 336.80400000 67.776885986 2.5097050667 96.939346313
 336.95640000 67.765861511 2.5101881027 97.007484436
 337.10880000 67.754829407 2.5079619884 97.075614929
 337.26120000 67.743797302 2.5057358742 97.143745422
 337.41360000 67.732765198 2.5035099983 97.211875916
 337.56600000 67.721740723 2.5012838840 97.280006409
 337.71840000 67.710708618 2.4825470448 97.348144531
 337.87080000 67.699676514 2.4797899723 97.416275024
 338.02320000 68.319107056 2.4793324471 97.484405518
 338.17560000 68.541961670 2.4788746834 97.552536011
 338.32800000 68.764816284 2.4784171581 97.620666504
 338.48040000 68.987670898 2.4779596329 97.688804626
 338.63280000 69.210533142 2.4775018692 97.756935120
 338.78520000 69.244491577 2.4770443439 97.825065613
 338.93760000 69.278457642 2.4765868187 97.893196106
 339.09000000 69.312416077 2.4761292934 97.961326599
 339.24240000 69.346374512 2.4756715298 98.029464722
 339.39480000 69.380340576 2.4752140045 98.097595215
 339.54720000 69.414299011 2.4784572124 98.165725708
 339.69960000 69.448265076 2.4817004204 98.233856201
 339.85200000 69.482223511 2.4849436283 98.301986694
 340.00440000 69.516181946 2.4881868362 98.370124817
 340.15680000 69.550148010 2.4914300442 98.438255310
 340.30920000 69.584106445 2.5183701515 98.506385803
 340.46160000 69.618072510 2.5201675892 98.574516296
 340.61400000 69.652030945 2.5219650269 98.642646790
 340.76640000 69.685989380 2.5083339214 98.710784912
 340.91880000 69.719955444 2.4845690727 98.778915405
 341.07120000 69.753913879 2.4828166962 98.847045898
 341.22360000 69.787872314 2.4810643196 98.915176392
 341.37600000 69.821838379 2.4793117046 98.983306885
 341.52840000 69.855796814 2.4775593281 99.051445007
 341.68080000 69.889755249 2.4848778248 99.119575500
 341.83320000 69.923721313 2.5100409985 99.187705994
 341.98560000 69.957679749 2.5100905895 99.255836487
 342.13800000 69.991645813 2.5101399422 99.323966980
 342.29040000 70.025604248 2.5101895332 99.392105103
 342.44280000 69.341331482 2.5102391243 99.460235596
 342.59520000 69.348846436 2.5144040585 99.528366089
 342.74760000 69.356369019 2.5145559311 99.596496582
 342.90000000 69.363883972 2.5147078037 99.664627075
 343.05240000 69.371398926 2.5148594379 99.732765198
 343.20480000 69.378921509 2.5150113106 99.800895691
 343.35720000 69.386436462 2.5151631832 99.869026184
 343.50960000 69.404907227 2.5033578873 99.937156677
 343.66200000 69.423377991 2.4948759079 100.00528717
 343.81440000 69.441848755 2.4920470715 100.07342529
 343.96680000 69.460311890 2.4913768768 100.14155579
 344.11920000 69.478782654 2.5021731853 100.20968628
 344.27160000 69.497253418 2.5096769333 100.27781677
 344.42400000 69.515724182 2.5119352341 100.34594727
 344.57640000 69.676254272 2.5141935349 100.41408539
 344.72880000 69.836791992 2.5164515972 100.48221588
 344.88120000 69.997322083 2.5187098980 100.55034637
 345.03360000 69.947311401 2.5037419796 100.61847687
 345.18600000 69.897300720 2.4904098511 100.68660736
 345.33840000 69.847290039 2.4799790382 100.75474548
 345.49080000 69.797279358 2.4896230698 100.82287598
 345.64320000 69.761047363 2.5033080578 100.89100647
 345.79560000 69.724815369 2.5163199902 100.95913696
 345.94800000 69.688583374 2.5067350864 101.02726746
 346.10040000 69.652359009 2.4947438240 101.09540558
 346.25280000 69.616127014 2.4774742126 101.16353607
 346.40520000 69.579895020 2.4783911705 101.23166656
 346.55760000 69.801872253 2.4804341793 101.29979706
 346.71000000 69.802528381 2.4788279533 101.36792755
 346.86240000 69.803184509 2.4804251194 101.43606567
 347.01480000 69.683998108 2.4820225239 101.50419617
 347.16720000 69.564804077 2.4836196899 101.57232666
 347.31960000 69.445617676 2.4852168560 101.64045715
 347.47200000 69.326431274 2.4868142605 101.70858765
 347.62440000 69.207244873 2.4884114265 101.77672577
 347.77680000 69.088050842 2.4900085926 101.84485626
 347.92920000 68.968864441 2.4916057587 101.91298676
 348.08160000 68.849678040 2.4932031631 101.98111725
 348.23400000 68.730484009 2.4948003292 102.04924774
 348.38640000 68.611297607 2.4963974953 102.11738586
 348.53880000 68.492111206 2.4979948997 102.18551636
 348.69120000 68.372917175 2.4995920658 102.25364685
 348.84360000 68.253730774 2.4869828224 102.32177734
 348.99600000 68.134544373 2.4790799618 102.38990784
 349.14840000 68.015357971 2.4803390503 102.45804596
 349.30080000 67.896163940 2.4921379089 102.52617645
 349.45320000 67.776977539 2.5028491020 102.59430695
 349.60560000 67.842506409 2.5066919327 102.66243744
 349.75800000 68.080368042 2.5061421394 102.73056793
 349.91040000 68.316558838 2.5058090687 102.79870605
 350.06280000 68.131843567 2.4901101589 102.86683655
 350.21520000 67.947135925 2.4907858372 102.93496704
 350.36760000 67.762420654 2.4914612770 103.00309753
 350.52000000 67.577705383 2.4921369553 103.07122803
 350.67240000 67.392990112 2.5214078426 103.13936615
 350.82480000 67.208282471 2.5295848846 103.20749664
 350.97720000 67.023567200 2.5270259380 103.27562714
 351.12960000 66.059883118 2.5188870430 103.34375763
 351.28200000 65.686042786 2.5272350311 103.41188812
 351.43440000 65.794891357 2.5276780128 103.48002625
 351.58680000 65.369964600 2.5235650539 103.54815674
 351.73920000 64.881927490 2.5167279243 103.61628723
 351.89160000 64.758689880 2.5230891705 103.68441772
 352.04400000 64.635452271 2.5221347809 103.75254822
 352.19640000 64.512222290 2.5211806297 103.82068634
 352.34880000 64.388984680 2.5202264786 103.88881683
 352.50120000 64.265747070 2.5192720890 103.95694733
 352.65360000 64.142509460 2.5099399090 104.02507782
 352.80600000 64.019271851 2.5151889324 104.09320831
 352.95840000 63.896038055 2.5212948322 104.16134644
 353.11080000 63.772800446 2.5169789791 104.22947693
 353.26320000 63.649566650 2.5153520107 104.29760742
 353.41560000 63.599689484 2.5210289955 104.36573792
 353.56800000 63.549812317 2.5286478996 104.43386841
 353.72040000 63.499931335 2.5335319042 104.50200653
 353.87280000 63.450054169 2.5328469276 104.57013702
 354.02520000 63.400177002 2.5342829227 104.63826752
 354.17760000 63.350296021 2.5260720253 104.70639801
 354.33000000 63.300418854 2.5161299706 104.77452850
 354.48240000 63.250541687 2.5101320744 104.84266663
 354.63480000 63.344161987 2.5108501911 104.91079712
 354.78720000 63.310230255 2.5209898949 104.97892761
 354.93960000 63.276294708 2.5299019814 105.04705811
 355.09200000 63.242362976 2.5346689224 105.11518860
 355.24440000 63.208427429 2.5396211147 105.18332672
 355.39680000 63.174495697 2.5373558998 105.25145721
 355.54920000 63.140560150 2.5409410000 105.31958771
 355.70160000 63.106628418 2.5312690735 105.38771820
 355.85400000 63.072692871 2.5129220486 105.45584869
 356.00640000 63.115383148 2.5125343800 105.52398682
 356.15880000 63.158069611 2.5121464729 105.59211731
 356.31120000 63.200759888 2.5117588043 105.66024780
 356.46360000 63.243450165 2.5113711357 105.72837830
 356.61600000 63.286140442 2.5109832287 105.79650879
 356.76840000 63.328826904 2.5105955601 105.86464691
 356.92080000 63.077095032 2.5102076530 105.93277740
 357.07320000 62.825363159 2.5098199844 106.00090790
 357.22560000 62.794445038 2.5084519386 106.06903839
 357.37800000 62.763530731 2.5089499950 106.13716888
 357.53040000 62.732612610 2.5094480515 106.20530701
 357.68280000 62.701698303 2.5099461079 106.27343750
 357.83520000 62.670780182 2.5300028324 106.34156799
 357.98760000 62.843456268 2.5373268127 106.40969849
 358.14000000 62.827083588 2.5402970314 106.47782898
 358.29240000 62.810710907 2.5429279804 106.54596710
 358.44480000 62.794334412 2.5438952446 106.61409760
