# LAS format log file from PETREL
# Project units are specified as depth units
#==================================================================
~Version information
VERS.   2.0:
WRAP.   YES:
#==================================================================
~Well
STRT .m      197.51040000 :
STOP .m      951.89040000 :
STEP .m     0.15240000 :
NULL .        -999.250000 :
COMP            .                Eastrock Resources LTD.   :COMPANY
WELL            .                Eastrock Lauren #1        :WELL NAME
FLD             .                        Lauren            :FIELD NAME
RIGN            .                    Foragaz #3            :Rig Name
RIGTYP          .                          Land            :Rig Type
SON             .                    BX61-00001            :Service Order Number
SRVC            .                  Schlumberger            :SERVICE COMPANY
DATE            .                    12/30/2011            :LOG DATE(Composite Date for Composite LAP) (MM/DD/YYYY)
CLAB            .                     Province:            :County Label
CNTY            .                   Nova Scotia            :COUNTY
SLAB            .                                          :State/Province Label
STAT            .                                          :STATE or PROVINCE
PROV            .                                          :STATE or PROVINCE
CTRY            .                        Canada            :COUNTRY
CONT_REGION     .                    N. America            :Continent Region
SECT            .                       -999.25            :Section
TOWN            .                    Springhill            :Township
RANG            .                       -999.25            :Range
API             .                        435655            :API NUMBER
UWI             .                       -999.25            :UNIQUE WELL ID
LUL             .                          CANS            :Logging Unit Location
LUN             .                          2316            :Logging Unit Number
LOC             .                    Springhill            :FIELD LOCATION
FL1             .                                          :Field Location Line 1
FL2             .                       -999.25            :Field Location Line 2
LATI            .deg             45∞ 39' 26.518" N         :LATITUDE
LONG            .deg             64∞ 0' 51.347" W          :LONGITUDE
PDAT            .                            GL            :Local Permanent Datum
LMF             .                            KB            :Logging Measured From
APD             .m                      4.00000            :Elevation of Depth Reference (LMF) Above Permanent Datum
EPD             .m                    119.00000            :Elevation of Permanent Datum (PDAT) above Mean Sea Level
EKB             .m                    123.00000            :Elevation of Kelly Bushing Above Permanent Datum
EDF             .m                    122.70000            :Elevation of Drill Floor Above Permanent Datum
EGL             .m                    119.00000            :Elevation of Ground Level Above Permanent Datum
ECF             .m                      -999.25            :Elevation of Casing Flange above Permanent Datum
#--------------------------------------------------
#==================================================================
~Curve
DEPT .m                   : DEPTH
CALI .in                  : Caliper
DT .us/ft                 : Delta-t P-sonic
DTS .us/ft                : Delta-t Shear-sonic
DPHI_SAN .m3/m3           : Density Porosity (Sandstone)
DPHI_LIM .m3/m3           : Density Porosity (Limestone)
DPHI_DOL .m3/m3           : Density Porosity (Dolomite)
NPHI_SAN .m3/m3           : Enhanced Thermal Neutron Porosity (Sandstone)
NPHI_LIM .m3/m3           : Enhanced Thermal Neutron Porosity (Limestone)
NPHI_DOL .m3/m3           : Enhanced Thermal Neutron Porosity (Dolomite)
AMF .ohm.m                : Array Induction Mud Resistivity Fully Calibrated
AF90 .ohm.m               : Array Induction Four Foot Resistivity A90
AF10 .ohm.m               : Array Induction Four Foot Resistivity A10
AF20 .ohm.m               : Array Induction Four Foot Resistivity A20
AF60 .ohm.m               : Array Induction Four Foot Resistivity A60
AF30 .ohm.m               : Array Induction Four Foot Resistivity A30
RXOZ .ohm.m               : Invaded Formation Resistivity filtered at 18 inches
GR .gAPI                  : Gamma Ray
POTA .gAPI                : POTA (percent)
THOR .gAPI                : THOR (percent)
URAN .gAPI                : URAN (percent)
SP .mV                    : SP
RHOB .g/cm3               : RHOB
~Parameter
#==================================================================
~Ascii
# ...
 781.81200000
 6.4057798386 59.489128113 104.84809875 -0.006260000 0.0290500000 0.1007699966
 0.1615899950 0.1206300035 0.0521799996 1.3847700357 67.571022034 67.535858154
 67.854286194 66.037727356 67.306663513 61.736850739 122.69460297 3.0226299763
 14.300379753 3.1185200214 -410.5243225 2.6603300571
 781.96440000
 6.4057798386 59.618938446 104.88570404 -0.002620000 0.0325599983 0.1020400003
 0.1589400023 0.1180000007 0.0503799990 1.3844599724 67.655700684 67.504631042
 68.249259949 66.157783508 67.588539124 62.501949310 122.24880219 3.0413198471
 14.477290154 2.8259799480 -409.5296021 2.6543259621
 782.11680000
 6.3981771469 60.055747986 105.07241821 0.0013000000 0.0363399982 0.1118699983
 0.1562599987 0.1153300032 0.0485799983 1.3841500282 67.729026794 67.478683472
 68.613990784 66.259651184 67.711341858 54.938339233 120.69519806 2.9567999840
 13.764229774 3.1171400547 -408.4440918 2.6478579044
 782.26920000
 6.3981771469 60.095737457 105.20503998 0.0038999999 0.0388499983 0.1096199974
 0.1544000059 0.1134900004 0.0473500006 1.3837599754 67.758636475 67.722923279
 68.708450317 66.417503357 68.037773132 56.492420197 121.64610291 2.9988701344
 13.166020393 3.3640599251 -408.1118164 2.6435730457
 782.42160000
 6.3981771469 59.850223541 105.64129639 -0.003980000 0.0312500000 0.0967200026
 0.1543100029 0.1133999974 0.0472900011 1.3833700418 67.734497070 67.925132751
 68.961143494 66.719383240 68.226318359 59.042091370 120.29850006 2.9795401096
 13.221039772 3.1129601002 -407.8888855 2.6565589905
 782.57400000
 6.3905749321 59.749061584 105.38487244 -0.007040000 0.0283000004 0.1031799987
 0.1516399980 0.1107600033 0.0455599986 1.3833500147 67.716697693 68.224693298
 69.163131714 67.013542175 68.477966309 74.686286926 117.92009735 2.9408299923
 12.685239792 3.1285200119 -407.1578979 2.6616139412
 782.72640000
 6.3981771469 59.797702789 105.48561096 -0.007520000 0.0278299991 0.1024399996
 0.1462299973 0.1053899974 0.0421499982 1.3833299875 67.757911682 68.441566467
 69.366577148 67.366462708 68.726722717 77.371788025 116.59320068 2.8903999329
 12.604030609 3.0519199371 -406.8298950 2.6624100208
 782.87880000
 6.3905749321 59.668254852 105.58676910 -0.003280000 0.0319299996 0.0958399996
 0.1478099972 0.1069599986 0.0431299992 1.3831900358 67.913116455 68.764038086
 69.581832886 67.750663757 68.978599548 78.743896484 118.34680176 2.8708701134
 13.465820313 3.0224399567 -407.0987244 2.6554079056
 783.03120000
 6.3791728020 59.330444336 104.82532501 -0.005270000 0.0300099999 0.1079199985
 0.1556600034 0.1147399992 0.0481799990 1.3830499649 68.208572388 68.934776306
 69.701652527 68.159912109 69.293540955 66.846107483 121.53829956 2.8814601898
 14.558440208 3.0857601166 -406.9836121 2.6586871147
 783.18360000
 6.3905749321 59.256137848 104.62155914 -0.008640000 0.0267600007 0.1060900018
 0.1613399982 0.1203799993 0.0520000011 1.3824800253 68.753273010 69.275360107
 69.986846924 68.620529175 69.580886841 66.888198853 122.04499817 2.8703899384
 14.891749382 2.9958300591 -406.2013855 2.6642489433
 783.33600000
 6.3905749321 59.188442230 104.31112671 -0.010590000 0.0248700008 0.0904299989
 0.1618900001 0.1209200025 0.0523799993 1.3819199800 69.273918152 69.357879639
 70.152801514 68.905693054 69.895767212 68.083557129 121.79139709 2.9064898491
 15.067320824 2.8344900608 -405.7072144 2.6674799919
 783.48840000
 6.3905749321 59.226299286 104.04079437 -0.009420000 0.0260000005 0.0985300019
 0.1557999998 0.1148800030 0.0482699983 1.3803299665 69.685653687 69.869613647
 70.419197083 69.064590454 70.079063416 84.737518311 118.67209625 2.7834799290
 14.744580269 2.8529801369 -404.9276123 2.6655430794
 783.64080000
 6.4133782387 59.253669739 103.95606232 -0.005870000 0.0294300001 0.1163699999
 0.1534599960 0.1125599965 0.0467399992 1.3787399530 70.173713684 69.982818604
 70.872329712 69.151229858 70.295631409 86.800277710 115.60340118 2.7226698399
 13.920129776 2.8191299438 -404.6528015 2.6596798897
 783.79320000
 6.4361853600 59.356384277 104.01290131 -0.005110000 0.0301600005 0.0934799984
 0.1500400007 0.1091699973 0.0445399992 1.3791500330 70.610198975 69.916496277
 70.974426270 68.954032898 70.304229736 91.732147217 114.19229889 2.7089099884
 13.524259567 2.8214600086 -404.6215210 2.6584331989
 783.94560000
 6.4437870979 59.495433807 104.71251678 -0.005810000 0.0294799991 0.0935600027
 0.1522900015 0.1114000008 0.0459799990 1.3795499802 70.476356506 69.692176819
 70.989250183 68.112030029 70.332412720 78.599159241 115.24150085 2.7038900852
 13.398649216 3.0357501507 -404.6348877 2.6595859528
 784.09800000
 6.4475865364 59.702884674 104.92710114 -0.010920000 0.0245500002 0.0988700017
 0.1534200013 0.1125200018 0.0467200018 1.3785899878 69.731628418 69.373863220
 70.917091370 67.456542969 70.148597717 75.638801575 117.71089935 2.7280600071
 13.081580162 3.4904398918 -405.6839905 2.6680161953
 784.25040000
 6.4513897896 59.755493164 104.52347565 -0.010510000 0.0249499995 0.0991199985
 0.1542399973 0.1133299991 0.0472499989 1.3776199818 68.339683533 67.965370178
 69.919792175 66.920066833 69.051948547 67.000587463 118.83270264 2.7044498920
 13.225259781 3.6464300156 -406.2992859 2.6673440933
 784.40280000
 6.4247837067 59.636192322 104.88713837 -0.006620000 0.0286999997 0.0959500000
 0.1547899991 0.1138800010 0.0476099998 1.3764200211 67.314521790 66.925537109
 68.752639771 66.322532654 68.153556824 64.586151123 117.42289734 2.7290999889
 13.100850105 3.4001700878 -407.2951050 2.6609239578
 784.55520000
 6.4209799767 59.456115723 104.96934509 -0.007490000 0.0278600007 0.0984100029
 0.1631799936 0.1221999973 0.0532799996 1.3752299547 66.432952881 65.580589294
 67.468063354 65.827453613 66.905853271 64.398117065 114.51119995 2.6284101009
 12.273670197 3.6036498547 -407.9028015 2.6623640060
 784.70760000
 6.4285826683 59.571849823 104.44176483 -0.009060000 0.0263400003 0.1031799987
 0.1698099971 0.1287800074 0.0579800010 1.3756200075 66.203132629 64.897468567
 66.918663025 65.966651917 66.664413452 70.078109741 113.72720337 2.5650198460
 12.124940872 3.6490199566 -409.0197144 2.6649570465
 784.86000000
 6.4209799767 59.422832489 104.57651520 -0.012960000 0.0225799996 0.0914700031
 0.1708800048 0.1298400015 0.0587599985 1.3760199547 66.642127991 65.203071594
 67.026733398 66.750389099 66.946533203 76.950851440 115.64199829 2.6272699833
 12.047479630 3.8085899353 -409.6354065 2.6713922024
 785.01240000
 6.4285826683 59.647956848 104.62007141 -0.012440000 0.0230800007 0.0922299996
 0.1666100025 0.1256099939 0.0556900017 1.3758599758 67.376541138 65.244758606
 67.203132629 67.751869202 67.283042908 76.719963074 117.11180115 2.6750400066
 11.752869606 3.9525997639 -410.1775818 2.6705269814
 785.16480000
 6.4361853600 59.759578705 104.70611572 -0.008690000 0.0266999993 0.0961100012
 0.1641100049 0.1231200024 0.0539200008 1.3756899834 68.197906494 65.984191895
 67.751792908 68.484970093 67.889312744 71.349121094 117.91780090 2.7914199829
 12.234149933 3.7061800957 -410.9478760 2.6643440723
 785.31720000
 6.4133782387 59.756195068 104.48787689 -0.005000000 0.0302600004 0.1079400033
 0.1647499949 0.1237599999 0.0543700010 1.3752900362 68.341903687 65.304153442
 67.251373291 68.355018616 67.450500488 67.082473755 117.55750275 2.7624900341
 12.660799980 3.7463898659 -412.2500000 2.6582539082
 785.46960000
 6.3981771469 59.974491119 104.41350555 0.0043199998 0.0392600000 0.1092799976
 0.1634600013 0.1224799976 0.0534700006 1.3748899698 67.261817932 63.422069550
 65.609169006 67.075866699 65.947990417 72.166053772 120.35379791 2.8435699940
 13.559780121 3.4533400536 -412.9930115 2.6428649426
 785.62200000
 6.4133782387 60.079765320 104.39658356 0.0091300001 0.0438899994 0.1049500033
 0.1596100032 0.1186600029 0.0508299991 1.3737599850 64.829818726 60.671920776
 62.961040497 64.501312256 63.435901642 67.568931580 120.63829803 2.8630201817
 13.969640732 3.2012498379 -413.7730103 2.6349418163
 785.77440000
 6.4437870979 60.184101105 104.42247009 0.0124199996 0.0470700003 0.1080200002
 0.1599700004 0.1190200001 0.0510700010 1.3726300001 62.460510254 57.981731415
 59.967800140 61.492660522 60.363361359 64.351043701 120.34089661 2.9308199883
 14.296279907 2.8261699677 -414.6805115 2.6295030117
