# LAS format log file from PETREL
# Project units are specified as depth units
#==================================================================
~Version information
VERS.   2.0:
WRAP.   NO:
#==================================================================
~Well
STRT .m      197.51040000 :
STOP .m      951.89040000 :
STEP .m     0.15240000 :
NULL .        -999.250000 :
COMP.           : COMPANY
WELL.  P-135   : WELL
FLD.            : FIELD
LOC.            : LOCATION
SRVC.           : SERVICE COMPANY
DATE.  2014-09-16 16:30:35   : Log Export Date {yyyy-MM-dd HH:mm:ss}
PROV.           : PROVINCE
UWI.      : UNIQUE WELL ID
API.            : API NUMBER
#==================================================================
~Curve
DEPT .m                   : DEPTH
Sonic_despiked .us/ft     : Sonic_despiked
RHOB_despiked .g/cm3      : RHOB_despiked
TWT .ms                   : TWT
~Parameter
#==================================================================
~Ascii
# ...
 726.79560000 60.239116669 2.6168503761 259.56283569
 726.94800000 60.187385559 2.6163039207 259.62274170
 727.10040000 60.135654449 2.6072161198 259.68264771
 727.25280000 60.143615723 2.6011779308 259.74258423
 727.40520000 60.151580811 2.5990948677 259.80249023
 727.55760000 60.159542084 2.5990481377 259.86239624
 727.71000000 60.167503357 2.6084952354 259.92230225
 727.86240000 60.175468445 2.6139431000 259.98220825
 728.01480000 60.183429718 2.6139335632 260.04211426
 728.16720000 60.205963135 2.6139242649 260.10202026
 728.31960000 60.216007233 2.6139147282 260.16192627
 728.47200000 60.226051331 2.6139054298 260.22183228
 728.62440000 60.236091614 2.6138958931 260.28173828
 728.77680000 60.246135712 2.6086068153 260.34164429
 728.92920000 60.256179810 2.6092469692 260.40155029
 729.08160000 60.266223907 2.6100020409 260.46145630
 729.23400000 60.276268005 2.6116456985 260.52139282
 729.38640000 60.286312103 2.6132893562 260.58129883
 729.53880000 60.296356201 2.6084609032 260.64120483
 729.69120000 60.306400299 2.5946831703 260.70111084
 729.84360000 60.316444397 2.5830838680 260.76101685
 729.99600000 60.176006317 2.5782299042 260.82092285
 730.14840000 60.178131104 2.5688180923 260.88082886
 730.30080000 60.180252075 2.5679903030 260.94073486
 730.45320000 60.182376862 2.5671627522 261.00064087
 730.60560000 60.184501648 2.5663349628 261.06054688
 730.75800000 60.186622620 2.5704851151 261.12045288
 730.91040000 60.188747406 2.5822041035 261.18035889
 731.06280000 60.190872192 2.5946640968 261.24026489
 731.21520000 60.192996979 2.5996499062 261.30020142
 731.36760000 60.195117950 2.5947608948 261.36010742
 731.52000000 60.197242737 2.5917699337 261.42001343
 731.67240000 60.199367523 2.5862140656 261.47991943
 731.82480000 60.201492310 2.5767610073 261.53982544
 731.97720000 60.203613281 2.5656979084 261.59973145
 732.12960000 60.205738068 2.5574860573 261.65963745
 732.28200000 60.503150940 2.5572490692 261.71954346
 732.43440000 60.433090210 2.5560760498 261.77944946
 732.58680000 60.363025665 2.5549030304 261.83935547
 732.73920000 60.292964935 2.5537300110 261.89926147
 732.89160000 60.369892120 2.5556399822 261.95916748
 733.04400000 60.446823120 2.5575499535 262.01907349
 733.19640000 60.523750305 2.5594601631 262.07901001
 733.34880000 60.600677490 2.5613701344 262.13891602
 733.50120000 60.677608490 2.5686819553 262.19882202
 733.65360000 60.682914734 2.5749249458 262.25872803
 733.80600000 60.688224792 2.5769340992 262.31863403
 733.95840000 60.693531036 2.5852589607 262.37854004
 734.11080000 60.698841095 2.5833740234 262.43844604
 734.26320000 60.704147339 2.5737948418 262.49835205
 734.41560000 60.709453583 2.5662429333 262.55825806
 734.56800000 60.714763641 2.5666890144 262.61816406
 734.72040000 60.720069885 2.5698180199 262.67807007
 734.87280000 60.725379944 2.5690147877 262.73797607
 735.02520000 60.730686188 2.5561459064 262.79791260
 735.17760000 60.735992432 2.5547049046 262.85781860
 735.33000000 60.741302490 2.5532636642 262.91772461
 735.48240000 60.746608734 2.5518226624 262.97763062
 735.63480000 60.751918793 2.5503814220 263.03753662
 735.78720000 60.757225037 2.5505385399 263.09744263
 735.93960000 60.762531281 2.5506958961 263.15734863
 736.09200000 60.767841339 2.5508530140 263.21725464
 736.24440000 60.773147583 2.5566980839 263.27716064
 736.39680000 60.778457642 2.5579199791 263.33706665
 736.54920000 60.783763885 2.5581169128 263.39697266
 736.70160000 60.841091156 2.5618679523 263.45687866
 736.85400000 60.848876953 2.5664021969 263.51678467
 737.00640000 60.856662750 2.5675470829 263.57672119
 737.15880000 60.864444733 2.5686919689 263.63662720
 737.31120000 60.872230530 2.5595738888 263.69653320
 737.46360000 60.880016327 2.5521569252 263.75643921
 737.61600000 60.887802124 2.5548009872 263.81634521
 737.76840000 60.895587921 2.5586969852 263.87625122
 737.92080000 60.903369904 2.5568180084 263.93615723
 738.07320000 60.911155701 2.5546770096 263.99606323
 738.22560000 60.918941498 2.5525360107 264.05596924
 738.37800000 60.926727295 2.5563712120 264.11587524
 738.53040000 60.934509277 2.5579099655 264.17578125
 738.68280000 60.942295074 2.5581488609 264.23568726
 738.83520000 60.950080872 2.5538065434 264.29559326
 738.98760000 60.957866669 2.5550739765 264.35552979
 739.14000000 60.965648651 2.5563414097 264.41543579
 739.29240000 60.973434448 2.5576088428 264.47534180
 739.44480000 60.981220245 2.5622889996 264.53524780
 739.59720000 60.949638367 2.5659370422 264.59515381
 739.74960000 60.918060303 2.5572659969 264.65505981
 739.90200000 60.920166016 2.5537190437 264.71496582
 740.05440000 60.922275543 2.5517108440 264.77487183
 740.20680000 60.924381256 2.5540530682 264.83477783
 740.35920000 60.926490784 2.5513019562 264.89468384
 740.51160000 60.928596497 2.5525810719 264.95458984
 740.66400000 60.930702209 2.5538601875 265.01449585
 740.81640000 60.932811737 2.5545330048 265.07440186
 740.96880000 60.934917450 2.5541138649 265.13433838
 741.12120000 60.923484802 2.5536949635 265.19424438
 741.27360000 60.746398926 2.5532760620 265.25415039
 741.42600000 60.762084961 2.5528569221 265.31405640
 741.57840000 60.777767181 2.5747950077 265.37396240
 741.73080000 60.793453217 2.5798406601 265.43386841
 741.88320000 60.809135437 2.5848863125 265.49377441
 742.03560000 60.824821472 2.5899319649 265.55368042
 742.18800000 60.664619446 2.5796380043 265.61358643
 742.34040000 60.504413605 2.5685868263 265.67349243
 742.49280000 60.344211578 2.5634520054 265.73339844
 742.64520000 60.466117859 2.5601909161 265.79330444
 742.79760000 60.588020325 2.5613100529 265.85321045
 742.95000000 60.328136444 2.5773658752 265.91314697
 743.10240000 60.322780609 2.5872352123 265.97305298
 743.25480000 60.317420959 2.5886709690 266.03295898
 743.40720000 60.338054657 2.5843210220 266.09286499
 743.55960000 60.388385773 2.5843291283 266.15277100
 743.71200000 60.438713074 2.5837438107 266.21267700
 743.86440000 60.489044189 2.5848329067 266.27258301
 744.01680000 60.539375305 2.5812749863 266.33248901
 744.16920000 60.528778076 2.5770969391 266.39239502
 744.32160000 60.518184662 2.5695910454 266.45230103
 744.47400000 60.507591248 2.5657858849 266.51220703
 744.62640000 60.496994019 2.5700309277 266.57211304
 744.77880000 60.486396790 2.5799689293 266.63204956
 744.93120000 60.475803375 2.5940878391 266.69195557
 745.08360000 60.465209961 2.5957031250 266.75186157
 745.23600000 60.454612732 2.5973181725 266.81176758
 745.38840000 60.234268188 2.5865199566 266.87167358
 745.54080000 60.214851379 2.5750877857 266.93157959
 745.69320000 60.195434570 2.5741050243 266.99148560
 745.84560000 60.176013947 2.5854837894 267.05139160
 745.99800000 60.156597137 2.6019141674 267.11129761
 746.15040000 60.137180328 2.6018445492 267.17120361
 746.30280000 60.117763519 2.6017751694 267.23110962
 746.45520000 60.098346710 2.6017055511 267.29101563
 746.60760000 60.078926086 2.6016359329 267.35092163
 746.76000000 60.059509277 2.6010749340 267.41085815
 746.91240000 60.040092468 2.5946221352 267.47076416
 747.06480000 60.020675659 2.5870049000 267.53067017
 747.21720000 60.001258850 2.5788159370 267.59057617
 747.36960000 59.981838226 2.5755171776 267.65048218
 747.52200000 59.962421417 2.5809381008 267.71038818
 747.67440000 59.943004608 2.5833477974 267.77029419
 747.82680000 59.948215485 2.5903830528 267.83020020
 747.97920000 59.953426361 2.5954818726 267.89010620
 748.13160000 59.958641052 2.5871279240 267.95001221
 748.28400000 59.963851929 2.5758368969 268.00991821
 748.43640000 59.877803802 2.5755016804 268.06982422
 748.58880000 59.878211975 2.5751662254 268.12973022
 748.74120000 59.878620148 2.5748310089 268.18966675
 748.89360000 59.879032135 2.5801329613 268.24957275
 749.04600000 59.879440308 2.5795490742 268.30947876
 749.19840000 59.879848480 2.5889360905 268.36938477
 749.35080000 59.880256653 2.5936319828 268.42929077
 749.50320000 59.880664825 2.6093201637 268.48919678
 749.65560000 59.881076813 2.6113150120 268.54910278
