# LAS format log file from PETREL
# Project units are specified as depth units
#==================================================================
~Version information
VERS.   2.0:
WRAP.   NO:
#==================================================================
~Well
STRT .m      197.51040000 :
STOP .m      951.89040000 :
STEP .m     0.15240000 :
NULL .        -999.250000 :
COMP.           : COMPANY
WELL.  P-135   : WELL
FLD.            : FIELD
LOC.            : LOCATION
SRVC.           : SERVICE COMPANY
DATE.  2014-09-16 16:30:35   : Log Export Date {yyyy-MM-dd HH:mm:ss}
PROV.           : PROVINCE
UWI.      : UNIQUE WELL ID
API.            : API NUMBER
#==================================================================
~Curve
DEPT .m                   : DEPTH
Sonic_despiked .us/ft     : Sonic_despiked
RHOB_despiked .g/cm3      : RHOB_despiked
TWT .ms                   : TWT
~Parameter
#==================================================================
~Ascii
# ...
 634.74600000 60.446708679 2.5760860443 223.28981018
 634.89840000 60.438179016 2.5763390064 223.34992981
 635.05080000 60.429649353 2.5851421356 223.41004944
 635.20320000 60.421119690 2.5888199806 223.47018433
 635.35560000 60.412590027 2.5871541500 223.53030396
 635.50800000 60.404064178 2.5844159126 223.59042358
 635.66040000 60.395534515 2.5842339993 223.65054321
 635.81280000 60.387004852 2.5872871876 223.71066284
 635.96520000 60.378475189 2.5884928703 223.77079773
 636.11760000 60.369945526 2.5918588638 223.83091736
 636.27000000 60.361415863 2.5923669338 223.89103699
 636.42240000 60.352890015 2.5881321430 223.95115662
 636.57480000 60.344360352 2.5781040192 224.01129150
 636.72720000 60.335830688 2.5806596279 224.07141113
 636.87960000 60.203395844 2.5832149982 224.13153076
 637.03200000 60.309833527 2.5857706070 224.19165039
 637.18440000 60.285297394 2.5883259773 224.25177002
 637.33680000 60.260757446 2.5908815861 224.31190491
 637.48920000 60.279193878 2.5934369564 224.37202454
 637.64160000 60.297626495 2.5982379913 224.43214417
 637.79400000 60.316062927 2.6020271778 224.49226379
 637.94640000 60.334495544 2.5965540409 224.55239868
 638.09880000 60.352931976 2.5954170227 224.61251831
 638.25120000 60.196933746 2.5959980488 224.67263794
 638.40360000 60.186294556 2.5949380398 224.73275757
 638.55600000 60.286453247 2.5988268852 224.79287720
 638.70840000 60.281848907 2.5922679901 224.85301208
 638.86080000 60.277248383 2.5911631584 224.91313171
 639.01320000 60.272644043 2.5963830948 224.97325134
 639.16560000 60.176116943 2.6095669270 225.03337097
 639.31800000 60.341682434 2.6092743874 225.09350586
 639.47040000 60.147678375 2.6089820862 225.15362549
 639.62280000 60.122123718 2.6086895466 225.21374512
 639.77520000 60.096565247 2.6083970070 225.27386475
 639.92760000 60.050930023 2.5991258621 225.33398438
 640.08000000 60.018680573 2.5931739807 225.39411926
 640.23240000 59.986431122 2.5884008408 225.45423889
 640.38480000 59.989215851 2.5881159306 225.51435852
 640.53720000 59.992000580 2.5931570530 225.57447815
 640.68960000 59.994785309 2.6026771069 225.63459778
 640.84200000 59.997570038 2.6105358601 225.69473267
 640.99440000 60.000354767 2.6197757721 225.75485229
 641.14680000 60.003139496 2.6220500469 225.81497192
 641.29920000 60.003364563 2.6231298447 225.87509155
 641.45160000 60.003593445 2.6173081398 225.93522644
 641.60400000 60.003818512 2.6112599373 225.99534607
 641.75640000 60.004047394 2.6060299873 226.05546570
 641.90880000 60.004272461 2.6003301144 226.11558533
 642.06120000 59.965557098 2.6009550095 226.17570496
 642.21360000 60.087997437 2.5962481499 226.23583984
 642.36600000 60.122531891 2.5981214046 226.29595947
 642.51840000 60.157066345 2.5999946594 226.35607910
 642.67080000 60.142086029 2.6018679142 226.41619873
 642.82320000 60.127105713 2.6089022160 226.47633362
 642.97560000 60.112129211 2.6065950394 226.53645325
 643.12800000 60.097148895 2.6131298542 226.59657288
 643.28040000 60.082168579 2.6230370998 226.65669250
 643.43280000 60.067188263 2.6298530102 226.71681213
 643.58520000 60.052207947 2.6258859634 226.77694702
 643.73760000 60.037227631 2.6198740005 226.83706665
 643.89000000 60.022251129 2.6065249443 226.89718628
 644.04240000 60.007270813 2.6056838036 226.95730591
 644.19480000 59.992290497 2.6048429012 227.01742554
 644.34720000 60.047275543 2.6040017605 227.07756042
 644.49960000 60.088241577 2.6031608582 227.13768005
 644.65200000 59.979854584 2.6070959568 227.19779968
 644.80440000 59.977722168 2.6091148853 227.25791931
 644.95680000 59.975589752 2.6167190075 227.31805420
 645.10920000 59.973457336 2.6250338554 227.37817383
 645.26160000 59.971328735 2.6248447895 227.43829346
 645.41400000 59.969196320 2.6246554852 227.49841309
 645.56640000 59.967063904 2.6244664192 227.55853271
 645.71880000 59.964931488 2.6242773533 227.61866760
 645.87120000 59.962799072 2.6240882874 227.67878723
 646.02360000 60.001983643 2.6238989830 227.73890686
 646.17600000 60.041164398 2.6237099171 227.79902649
 646.32840000 60.080345154 2.6187400818 227.85916138
 646.48080000 60.119525909 2.6215500832 227.91928101
 646.63320000 60.158710480 2.6292660236 227.97940063
 646.78560000 60.137031555 2.6351790428 228.03952026
 646.93800000 60.115352631 2.6352519989 228.09963989
 647.09040000 60.093677521 2.6353249550 228.15977478
 647.24280000 60.071998596 2.6353979111 228.21989441
 647.39520000 60.050319672 2.6354708672 228.28001404
 647.54760000 60.071601868 2.6259851456 228.34013367
 647.70000000 60.004451752 2.6254060268 228.40026855
 647.85240000 60.143623352 2.6310338974 228.46038818
 648.00480000 60.158195496 2.6316239834 228.52050781
 648.15720000 60.168773651 2.6322143078 228.58062744
 648.30960000 60.179347992 2.6328043938 228.64074707
 648.46200000 60.189926147 2.6333944798 228.70088196
 648.61440000 60.200500488 2.6339848042 228.76100159
 648.76680000 60.211078644 2.6345748901 228.82112122
 648.91920000 60.176876068 2.6351649761 228.88124084
 649.07160000 60.168586731 2.6357553005 228.94136047
 649.22400000 60.160293579 2.6363453865 229.00149536
 649.37640000 60.152004242 2.6369354725 229.06161499
 649.52880000 60.143714905 2.6347908974 229.12173462
 649.68120000 60.204574585 2.6326465607 229.18185425
 649.83360000 60.210113525 2.6305019855 229.24198914
 649.98600000 60.215656281 2.6279797554 229.30210876
 650.13840000 60.221195221 2.6254572868 229.36222839
 650.29080000 60.226734161 2.6229350567 229.42234802
 650.44320000 60.232276917 2.6345520020 229.48246765
 650.59560000 60.237815857 2.6342120171 229.54260254
 650.74800000 60.243354797 2.6338720322 229.60272217
 650.90040000 60.145076752 2.6335320473 229.66284180
 651.05280000 60.142627716 2.6331918240 229.72296143
 651.20520000 60.140182495 2.6328518391 229.78309631
 651.35760000 60.209270477 2.6325118542 229.84321594
 651.51000000 60.278354645 2.6285090446 229.90333557
 651.66240000 60.258853912 2.6263267994 229.96345520
 651.81480000 60.239356995 2.6278450489 230.02357483
 651.96720000 60.219856262 2.6312880516 230.08370972
 652.11960000 60.274330139 2.6334691048 230.14382935
 652.27200000 60.273326874 2.6356503963 230.20394897
 652.42440000 60.272319794 2.6343307495 230.26406860
 652.57680000 60.289806366 2.6330111027 230.32418823
 652.72920000 60.286411285 2.6196930408 230.38432312
 652.88160000 60.283016205 2.6207289696 230.44444275
 653.03400000 60.279621124 2.6246178150 230.50456238
 653.18640000 60.276226044 2.6358678341 230.56468201
 653.33880000 60.272830963 2.6343898773 230.62481689
 653.49120000 60.269435883 2.6265680790 230.68493652
 653.64360000 60.266040802 2.6183509827 230.74505615
 653.79600000 60.262645721 2.6241221428 230.80517578
 653.94840000 60.259250641 2.6281552315 230.86529541
 654.10080000 60.255855560 2.6321883202 230.92543030
 654.25320000 60.252460480 2.6277263165 230.98554993
 654.40560000 60.249065399 2.6232640743 231.04566956
 654.55800000 60.245670319 2.6188020706 231.10578918
 654.71040000 60.242275238 2.6114850044 231.16592407
 654.86280000 60.238880157 2.6083829403 231.22604370
 655.01520000 60.235485077 2.6167471409 231.28616333
 655.16760000 60.232089996 2.6229960918 231.34628296
 655.32000000 60.228694916 2.6230270863 231.40640259
 655.47240000 60.246067047 2.6117088795 231.46653748
 655.62480000 60.196018219 2.6058659554 231.52665710
 655.77720000 60.195709229 2.6132450104 231.58677673
 655.92960000 60.195396423 2.6273880005 231.64689636
 656.08200000 60.195087433 2.6228339672 231.70703125
 656.23440000 60.194774628 2.6176450253 231.76715088
 656.38680000 60.194465637 2.6059870720 231.82727051
 656.53920000 60.194156647 2.6122560501 231.88739014
 656.69160000 60.193843842 2.6133038998 231.94750977
 656.84400000 60.193534851 2.6161289215 232.00764465
 656.99640000 60.193222046 2.6061949730 232.06776428
 657.14880000 60.192913055 2.6039681435 232.12788391
 657.30120000 60.241615295 2.6017415524 232.18800354
 657.45360000 60.243057251 2.5995147228 232.24812317
 657.60600000 60.244503021 2.5972881317 232.30825806
