# LAS format log file from PETREL
# Project units are specified as depth units
#==================================================================
~Version information
VERS.   2.0:
WRAP.   YES:
#==================================================================
~Well
STRT .m      197.51040000 :
STOP .m      951.89040000 :
STEP .m     0.15240000 :
NULL .        -999.250000 :
COMP            .                Eastrock Resources LTD.   :COMPANY
WELL            .                Eastrock Lauren #1        :WELL NAME
FLD             .                        Lauren            :FIELD NAME
RIGN            .                    Foragaz #3            :Rig Name
RIGTYP          .                          Land            :Rig Type
SON             .                    BX61-00001            :Service Order Number
SRVC            .                  Schlumberger            :SERVICE COMPANY
DATE            .                    12/30/2011            :LOG DATE(Composite Date for Composite LAP) (MM/DD/YYYY)
CLAB            .                     Province:            :County Label
CNTY            .                   Nova Scotia            :COUNTY
SLAB            .                                          :State/Province Label
STAT            .                                          :STATE or PROVINCE
PROV            .                                          :STATE or PROVINCE
CTRY            .                        Canada            :COUNTRY
CONT_REGION     .                    N. America            :Continent Region
SECT            .                       -999.25            :Section
TOWN            .                    Springhill            :Township
RANG            .                       -999.25            :Range
API             .                        435655            :API NUMBER
UWI             .                       -999.25            :UNIQUE WELL ID
LUL             .                          CANS            :Logging Unit Location
LUN             .                          2316            :Logging Unit Number
LOC             .                    Springhill            :FIELD LOCATION
FL1             .                                          :Field Location Line 1
FL2             .                       -999.25            :Field Location Line 2
LATI            .deg             45∞ 39' 26.518" N         :LATITUDE
LONG            .deg             64∞ 0' 51.347" W          :LONGITUDE
PDAT            .                            GL            :Local Permanent Datum
LMF             .                            KB            :Logging Measured From
APD             .m                      4.00000            :Elevation of Depth Reference (LMF) Above Permanent Datum
EPD             .m                    119.00000            :Elevation of Permanent Datum (PDAT) above Mean Sea Level
EKB             .m                    123.00000            :Elevation of Kelly Bushing Above Permanent Datum
EDF             .m                    122.70000            :Elevation of Drill Floor Above Permanent Datum
EGL             .m                    119.00000            :Elevation of Ground Level Above Permanent Datum
ECF             .m                      -999.25            :Elevation of Casing Flange above Permanent Datum
#--------------------------------------------------
#==================================================================
~Curve
DEPT .m                   : DEPTH
CALI .in                  : Caliper
DT .us/ft                 : Delta-t P-sonic
DTS .us/ft                : Delta-t Shear-sonic
DPHI_SAN .m3/m3           : Density Porosity (Sandstone)
DPHI_LIM .m3/m3           : Density Porosity (Limestone)
DPHI_DOL .m3/m3           : Density Porosity (Dolomite)
NPHI_SAN .m3/m3           : Enhanced Thermal Neutron Porosity (Sandstone)
NPHI_LIM .m3/m3           : Enhanced Thermal Neutron Porosity (Limestone)
NPHI_DOL .m3/m3           : Enhanced Thermal Neutron Porosity (Dolomite)
AMF .ohm.m                : Array Induction Mud Resistivity Fully Calibrated
AF90 .ohm.m               : Array Induction Four Foot Resistivity A90
AF10 .ohm.m               : Array Induction Four Foot Resistivity A10
AF20 .ohm.m               : Array Induction Four Foot Resistivity A20
AF60 .ohm.m               : Array Induction Four Foot Resistivity A60
AF30 .ohm.m               : Array Induction Four Foot Resistivity A30
RXOZ .ohm.m               : Invaded Formation Resistivity filtered at 18 inches
GR .gAPI                  : Gamma Ray
POTA .gAPI                : POTA (percent)
THOR .gAPI                : THOR (percent)
URAN .gAPI                : URAN (percent)
SP .mV                    : SP
RHOB .g/cm3               : RHOB
~Parameter
#==================================================================
~Ascii
# ...
 213.96960000
 6.4817953110  -999.250000  -999.250000 -0.222379997 -0.179490000 -0.099320002
 0.4020400047 0.3485000134 0.3146100044  -999.250000  -999.250000  -999.250000
  -999.250000  -999.250000  -999.250000  -999.250000 85.253646851 1.8399100304
 7.9744997025 3.4061999321  -999.250000 3.0169250965
 214.12200000
 6.4665904045  -999.250000  -999.250000 -0.232189998 -0.188950002 -0.102459997
 0.3806400001 0.3305999935 0.2880699933  -999.250000  -999.250000  -999.250000
  -999.250000  -999.250000  -999.250000  -999.250000 84.443496704 1.7696399689
 8.0865106583 3.4520101547  -999.250000 3.0331101418
 214.27440000
 6.4817953110  -999.250000  -999.250000 -0.238309994 -0.194859996 -0.107680000
 0.3388699889 0.2956599891 0.2362899929  -999.250000  -999.250000  -999.250000
  -999.250000  -999.250000  -999.250000  -999.250000 85.737846375 1.8283900023
 8.5999097824 3.2533299923  -999.250000 3.0432100296
 214.42680000
 6.4703941345  -999.250000  -999.250000 -0.241579995 -0.198019996 -0.115680002
 0.3149699867 0.2727900147 0.2075199932  -999.250000  -999.250000  -999.250000
  -999.250000  -999.250000  -999.250000  -999.250000 84.874427795 1.7953600883
 8.5510196686 3.2942900658  -999.250000 3.0486087799
 214.57920000
 6.4665904045  -999.250000  -999.250000 -0.241750002 -0.198180005 -0.101680003
 0.2950699925 0.2530499995 0.1836600006  -999.250000  -999.250000  -999.250000
  -999.250000  -999.250000  -999.250000  -999.250000 88.103996277 1.8426399231
 8.6659698486 3.5814599991  -999.250000 3.0488879681
 214.73160000
 6.4817953110  -999.250000  -999.250000 -0.237859994 -0.194419995 -0.102700002
 0.2835699916 0.2416400015 0.1703699976  -999.250000  -999.250000  -999.250000
  -999.250000  -999.250000  -999.250000  -999.250000 90.303993225 1.8622699976
 8.9435100555 3.7347700596  -999.250000 3.0424661636
 214.88400000
 6.4589881897  -999.250000  -999.250000 -0.234050006 -0.190750003 -0.099789999
 0.2921200097 0.2501200140 0.1802199930  -999.250000  -999.250000  -999.250000
  -999.250000  -999.250000  -999.250000  -999.250000 91.851898193 1.8742300272
 9.2886905670 3.7568900585  -999.250000 3.0361850262
 215.03640000
 6.4760947227  -999.250000  -999.250000 -0.231079996 -0.187879995 -0.097750001
 0.3077000082 0.2655700147 0.1986699998  -999.250000  -999.250000  -999.250000
  -999.250000  -999.250000  -999.250000  -999.250000 89.088432312 1.8398299217
 9.0616502762 3.5995299816  -999.250000 3.0312790871
 215.18880000
 6.4741930962  -999.250000  -999.250000 -0.230159998 -0.186989993 -0.102669999
 0.3077400029 0.2656100094 0.1987199932  -999.250000  -999.250000  -999.250000
  -999.250000  -999.250000  -999.250000  -999.250000 86.263633728 1.7132500410
 8.7831602097 3.6719901562  -999.250000 3.0297601223
 215.34120000
 6.4741930962  -999.250000  -999.250000 -0.228630006 -0.185519993 -0.093249999
 0.3144899905 0.2723099887 0.2069399953  -999.250000  -999.250000  -999.250000
  -999.250000  -999.250000  -999.250000  -999.250000 83.992210388 1.6372399330
 8.7759895325 3.5892000198  -999.250000 3.0272450447
 215.49360000
 6.4665904045  -999.250000  -999.250000 -0.229540005 -0.186399996 -0.094010003
 0.3129000068 0.2707400024 0.2049899995  -999.250000  -999.250000  -999.250000
  -999.250000  -999.250000  -999.250000  -999.250000 83.870071411 1.6170600653
 8.7596502304 3.6478400230  -999.250000 3.0287389755
 215.64600000
 6.4741930962  -999.250000  -999.250000 -0.233889997 -0.190599993 -0.101000004
 0.3161500096 0.2739599943 0.2089699954  -999.250000  -999.250000  -999.250000
  -999.250000  -999.250000  -999.250000  -999.250000 82.144233704 1.5406700373
 8.6093196869 3.6694200039  -999.250000 3.0359199047
 215.79840000
 6.4741930962  -999.250000  -999.250000 -0.242349997 -0.198760003 -0.111730002
 0.2944599986 0.2524400055 0.1829500049  -999.250000  -999.250000  -999.250000
  -999.250000  -999.250000  -999.250000  -999.250000 80.210258484 1.4995100498
 8.3768196106 3.6295700073  -999.250000 3.0498731136
 215.95080000
 6.4741930962  -999.250000  -999.250000 -0.252600014 -0.208649993 -0.120370001
 0.2918500006 0.2498600036 0.1799100041  -999.250000  -999.250000  -999.250000
  -999.250000  -999.250000  -999.250000  -999.250000 79.769577026 1.4478399754
 8.3953104019 3.7328200340  -999.250000 3.0667982101
 216.10320000
 6.4665904045  -999.250000  -999.250000 -0.261920005 -0.217639998 -0.131459996
 0.2971400023 0.2551000118 0.1860900074  -999.250000  -999.250000  -999.250000
  -999.250000  -999.250000  -999.250000  -999.250000 82.307426453 1.4910500050
 8.5732002258 3.9371097088  -999.250000 3.0821709633
 216.25560000
 6.4665904045  -999.250000  -999.250000 -0.281780005 -0.236800000 -0.156479999
 0.3213599920 0.2791300118 0.2154400051  -999.250000  -999.250000  -999.250000
  -999.250000  -999.250000  -999.250000  -999.250000 86.129257202 1.5779899359
 9.3447694778 3.8917801380  -999.250000 3.1149330139
 216.40800000
 6.4665904045  -999.250000  -999.250000 -0.348069996 -0.300770015 -0.202450007
 0.3211300075 0.2788999975 0.2151499987  -999.250000  -999.250000  -999.250000
  -999.250000  -999.250000  -999.250000  -999.250000 90.253288269 1.6349699497
 9.9579401016 4.0460901260  -999.250000 3.2243201733
 216.56040000
 6.4589881897  -999.250000  -999.250000 -0.464760005 -0.413360000 -0.330540001
 0.3045099974 0.2624199986 0.1948399991  -999.250000  -999.250000  -999.250000
  -999.250000  -999.250000  -999.250000  -999.250000 88.911293030 1.6327999830
 10.143980026 3.8432700634  -999.250000 3.4168510437
 216.71280000
 6.4589881897  -999.250000  -999.250000 -0.555670023 -0.501079977 -0.660090029
 0.2972700000 0.2552300096 0.1862500012  -999.250000  -999.250000  -999.250000
  -999.250000  -999.250000  -999.250000  -999.250000 87.658523560 1.5967700481
 10.528100014 3.6082599163  -999.250000 3.5668468475
 216.86520000
 6.4741930962  -999.250000  -999.250000 -0.532679975 -0.478899986 -0.371369988
 0.2921899855 0.2501899898 0.1802899987  -999.250000  -999.250000  -999.250000
  -999.250000  -999.250000  -999.250000  -999.250000 86.777183533 1.5762399435
 10.486860275 3.4914200306  -999.250000 3.5289239883
 217.01760000
 6.4969959259  -999.250000  -999.250000 -0.414970011 -0.365319997 -0.164749995
 0.2799400091 0.2380400002 0.1662400067  -999.250000  -999.250000  -999.250000
  -999.250000  -999.250000  -999.250000  -999.250000 90.312103271 1.5800700188
 11.312919617 3.6018400192  -999.250000 3.3346931934
 217.17000000
 6.4969959259  -999.250000  -999.250000 -0.302379996 -0.256680012 -0.127710000
 0.2540700138 0.2123699933 0.1377200037  -999.250000  -999.250000  -999.250000
  -999.250000  -999.250000  -999.250000  -999.250000 96.652191162 1.6246100664
 12.051210403 4.0151600838  -999.250000 3.1489310265
 217.32240000
 6.4969959259  -999.250000  -999.250000 -0.254400015 -0.210380003 -0.113270000
 0.2375600040 0.1959899962 0.1202699989  -999.250000  -999.250000  -999.250000
  -999.250000  -999.250000  -999.250000  -999.250000 102.17320251 1.7443799973
 13.434470177 3.9094197750  -999.250000 3.0697579384
 217.47480000
 6.5045986176  -999.250000  -999.250000 -0.247559994 -0.203779995 -0.113779999
 0.2552399933 0.2135300040 0.1389800012  -999.250000  -999.250000  -999.250000
  -999.250000  -999.250000  -999.250000  -999.250000 106.39179993 1.8328700066
 13.894030571 4.0156803131  -999.250000 3.0584671497
 217.62720000
 6.5045986176  -999.250000  -999.250000 -0.246419996 -0.202680007 -0.109010004
 0.2732900083 0.2314399928 0.1587599963  -999.250000  -999.250000  -999.250000
  -999.250000  -999.250000  -999.250000  -999.250000 106.74559784 1.8164501190
 14.000560760 3.9289898872  -999.250000 3.0565860271
 217.77960000
 6.5045986176  -999.250000  -999.250000 -0.245989993 -0.202270001 -0.111680001
 0.2750200033 0.2331600040 0.1606999934  -999.250000  -999.250000  -999.250000
  -999.250000  -999.250000  -999.250000  -999.250000 105.14550018 1.7850600481
 14.518020630 3.5725901127  -999.250000 3.0558788776
 217.93200000
 6.5045986176  -999.250000  -999.250000 -0.247559994 -0.203789994 -0.116499998
 0.2744599879 0.2326000035 0.1600700021  -999.250000  -999.250000  -999.250000
  -999.250000  -999.250000  -999.250000  -999.250000 104.19480133 1.7860300541
 14.927100182 3.3069300652  -999.250000 3.0584719181
