# LAS format log file from PETREL
# Project units are specified as depth units
#==================================================================
~Version information
VERS.   2.0:
WRAP.   NO:
#==================================================================
~Well
STRT .m      197.51040000 :
STOP .m      951.89040000 :
STEP .m     0.15240000 :
NULL .        -999.250000 :
COMP.           : COMPANY
WELL.  P-135   : WELL
FLD.            : FIELD
LOC.            : LOCATION
SRVC.           : SERVICE COMPANY
DATE.  2014-09-16 16:30:35   : Log Export Date {yyyy-MM-dd HH:mm:ss}
PROV.           : PROVINCE
UWI.      : UNIQUE WELL ID
API.            : API NUMBER
#==================================================================
~Curve
DEPT .m                   : DEPTH
Sonic_despiked .us/ft     : Sonic_despiked
RHOB_despiked .g/cm3      : RHOB_despiked
TWT .ms                   : TWT
~Parameter
#==================================================================
~Ascii
# ...
 588.72120000 61.548671722 2.5467820168 205.00195313
 588.87360000 61.540092468 2.5514240265 205.06433105
 589.02600000 61.492656708 2.5506014824 205.12672424
 589.17840000 61.445220947 2.5497789383 205.18911743
 589.33080000 61.397785187 2.5489563942 205.25151062
 589.48320000 61.350353241 2.5481338501 205.31388855
 589.63560000 61.302917480 2.5473115444 205.37628174
 589.78800000 61.255481720 2.5464890003 205.43867493
 589.94040000 61.208045959 2.5456664562 205.50106812
 590.09280000 60.911964417 2.5448439121 205.56346130
 590.24520000 60.796535492 2.5509402752 205.62583923
 590.39760000 60.725059509 2.5508866310 205.68823242
 590.55000000 60.933422089 2.5508327484 205.75062561
 590.70240000 60.907726288 2.5507791042 205.81301880
 590.85480000 60.801342010 2.5603768826 205.87539673
 591.00720000 60.694953918 2.5631189346 205.93778992
 591.15960000 60.588569641 2.5559480190 206.00018311
 591.31200000 60.482185364 2.5518410206 206.06257629
 591.46440000 60.375797272 2.5486669540 206.12496948
 591.61680000 60.269412994 2.5434498787 206.18734741
 591.76920000 60.163028717 2.5435023308 206.24974060
 591.92160000 60.056640625 2.5435550213 206.31213379
 592.07400000 59.950256348 2.5547540188 206.37452698
 592.22640000 59.843872070 2.5595319271 206.43690491
 592.37880000 59.737483978 2.5608139038 206.49929810
 592.53120000 59.631099701 2.5665409565 206.56169128
 592.68360000 59.549022675 2.5700550079 206.62408447
 592.83600000 59.466945648 2.5666620731 206.68646240
 592.98840000 59.460273743 2.5644030571 206.74885559
 593.14080000 59.453605652 2.5666990280 206.81124878
 593.29320000 59.446933746 2.5775759220 206.87364197
 593.44560000 59.440265656 2.5812189579 206.93603516
 593.59800000 59.433593750 2.5738730431 206.99841309
 593.75040000 59.426921844 2.5703978539 207.06080627
 593.90280000 59.420253754 2.5718541145 207.12319946
 594.05520000 59.413581848 2.5801210403 207.18559265
 594.20760000 59.406909943 2.5803978443 207.24797058
 594.36000000 59.400241852 2.5801889896 207.31036377
 594.51240000 59.393569946 2.5739560127 207.37275696
 594.66480000 59.386901855 2.5715610981 207.43515015
 594.81720000 59.380229950 2.5727469921 207.49754333
 594.96960000 59.373558044 2.5717804432 207.55992126
 595.12200000 59.366889954 2.5708136559 207.62231445
 595.27440000 59.360218048 2.5698471069 207.68470764
 595.42680000 59.353549957 2.5688803196 207.74710083
 595.57920000 59.346878052 2.5679137707 207.80947876
 595.73160000 59.340206146 2.5669469833 207.87187195
 595.88400000 59.333538055 2.5659804344 207.93426514
 596.03640000 59.326866150 2.5650136471 207.99665833
 596.18880000 59.320198059 2.5640470982 208.05905151
 596.34120000 59.313526154 2.5636870861 208.12142944
 596.49360000 59.306854248 2.5627810955 208.18382263
 596.64600000 59.300186157 2.5618751049 208.24621582
 596.79840000 59.293514252 2.5727450848 208.30860901
 596.95080000 59.286842346 2.5675199032 208.37098694
 597.10320000 59.280174255 2.5651988983 208.43338013
 597.25560000 59.273502350 2.5685939789 208.49577332
 597.40800000 59.266834259 2.5744559765 208.55816650
 597.56040000 59.260162354 2.5767829418 208.61981201
 597.71280000 59.193897247 2.5791101456 208.67993164
 597.86520000 59.085784912 2.5814371109 208.74005127
 598.01760000 59.130470276 2.5742299557 208.80017090
 598.17000000 59.175151825 2.5717949867 208.86030579
 598.32240000 59.219837189 2.5750200748 208.92042542
 598.47480000 59.264518738 2.5752470493 208.98054504
 598.62720000 59.309204102 2.5694179535 209.04066467
 598.77960000 59.353885651 2.5601990223 209.10078430
 598.93200000 59.398571014 2.5515079498 209.16091919
 599.08440000 59.385131836 2.5515017509 209.22103882
 599.23680000 59.730926514 2.5514953136 209.28115845
 599.38920000 59.572490692 2.5514891148 209.34127808
 599.54160000 59.611755371 2.5682179928 209.40141296
 599.69400000 59.651020050 2.5727922916 209.46153259
 599.84640000 59.690284729 2.5773668289 209.52165222
 599.99880000 59.729549408 2.5722289085 209.58177185
 600.15120000 59.768814087 2.5704810619 209.64189148
 600.30360000 60.105190277 2.5690038204 209.70202637
 600.45600000 60.123981476 2.5525138378 209.76214600
 600.60840000 60.142768860 2.5425400734 209.82226563
 600.76080000 60.161560059 2.5440618992 209.88238525
 600.91320000 60.180351257 2.5622260571 209.94252014
 601.06560000 60.059879303 2.5700528622 210.00263977
 601.21800000 59.939407349 2.5696969032 210.06275940
 601.37040000 60.170356750 2.5606288910 210.12287903
 601.52280000 60.400966644 2.5514168739 210.18299866
 601.67520000 60.631580353 2.5495998859 210.24313354
 601.82760000 60.862190247 2.5477831364 210.30325317
 601.98000000 61.092803955 2.5459661484 210.36337280
 602.13240000 61.063842773 2.5441491604 210.42349243
 602.28480000 61.034877777 2.5423324108 210.48361206
 602.43720000 61.005912781 2.5405154228 210.54374695
 602.58960000 60.976947784 2.5437510014 210.60386658
 602.74200000 60.687877655 2.5567910671 210.66398621
 602.89440000 60.805778503 2.5478589535 210.72410583
 603.04680000 60.923679352 2.5451369286 210.78424072
 603.19920000 61.041584015 2.5427289009 210.84436035
 603.35160000 61.159484863 2.5522670746 210.90447998
 603.50400000 61.277385712 2.5507328510 210.96459961
 603.65640000 61.176258087 2.5459241867 211.02471924
 603.80880000 61.088596344 2.5364570618 211.08485413
 603.96120000 60.979812622 2.5416011810 211.14497375
 604.11360000 60.789905548 2.5473740101 211.20509338
 604.26600000 60.600002289 2.5536079407 211.26521301
 604.41840000 60.938331604 2.5464332104 211.32534790
 604.57080000 61.276657104 2.5377080441 211.38546753
 604.72320000 60.687984467 2.5374929905 211.44558716
 604.87560000 60.717311859 2.5372779369 211.50570679
 605.02800000 60.746635437 2.5370628834 211.56582642
 605.18040000 60.775962830 2.5521879196 211.62596130
 605.33280000 60.805290222 2.5585439205 211.68608093
 605.48520000 60.834617615 2.5502500534 211.74620056
 605.63760000 60.863945007 2.5421447754 211.80632019
 605.79000000 60.893272400 2.5340397358 211.86645508
 605.94240000 60.922599792 2.5353102684 211.92657471
 606.09480000 60.951927185 2.5365810394 211.98669434
 606.24720000 60.981250763 2.5370938778 212.04681396
 606.39960000 61.010578156 2.5372710228 212.10693359
 606.55200000 61.039905548 2.5347719193 212.16706848
 606.70440000 61.069232941 2.5419380665 212.22718811
 606.85680000 61.098560333 2.5562670231 212.28730774
 607.00920000 61.083740234 2.5741100311 212.34742737
 607.16160000 61.110614777 2.5839090347 212.40754700
 607.31400000 61.137489319 2.5789690018 212.46768188
 607.46640000 61.164360046 2.5723040104 212.52780151
 607.61880000 61.191234589 2.5595128536 212.58792114
 607.77120000 61.218109131 2.5415220261 212.64804077
 607.92360000 61.244983673 2.5422513485 212.70817566
 608.07600000 61.271858215 2.5429806709 212.76829529
 608.22840000 61.298732758 2.5437099934 212.82841492
 608.38080000 61.325607300 2.5468459129 212.88853455
 608.53320000 60.862281799 2.5604810715 212.94865417
 608.68560000 60.870071411 2.5688841343 213.00878906
 608.83800000 60.877857208 2.5796899796 213.06890869
 608.99040000 60.885643005 2.5941410065 213.12902832
 609.14280000 60.893432617 2.5936474800 213.18914795
 609.29520000 60.901222229 2.5931539536 213.24928284
 609.44760000 60.909008026 2.5926604271 213.30940247
 609.60000000 60.916793823 2.5921669006 213.36952209
 609.75240000 60.924583435 2.5916733742 213.42964172
 609.90480000 60.932373047 2.5911796093 213.48976135
 610.05720000 60.940158844 2.5906860828 213.54989624
 610.20960000 60.947944641 2.5901925564 213.61001587
 610.36200000 60.955734253 2.5896990299 213.67013550
 610.51440000 60.963523865 2.5892055035 213.73025513
 610.66680000 60.971309662 2.5887119770 213.79037476
 610.81920000 60.979095459 2.5882184505 213.85050964
 610.97160000 60.986885071 2.5877249241 213.91062927
 611.12400000 60.994674683 2.5872313976 213.97074890
 611.27640000 61.002460480 2.5867376328 214.03086853
 611.42880000 61.010246277 2.5862441063 214.09100342
 611.58120000 61.018035889 2.5857505798 214.15112305
