# LAS format log file from PETREL
# Project units are specified as depth units
#==================================================================
~Version information
VERS.   2.0:
WRAP.   YES:
#==================================================================
~Well
STRT .m      197.51040000 :
STOP .m      951.89040000 :
STEP .m     0.15240000 :
NULL .        -999.250000 :
COMP            .                Eastrock Resources LTD.   :COMPANY
WELL            .                Eastrock Lauren #1        :WELL NAME
FLD             .                        Lauren            :FIELD NAME
RIGN            .                    Foragaz #3            :Rig Name
RIGTYP          .                          Land            :Rig Type
SON             .                    BX61-00001            :Service Order Number
SRVC            .                  Schlumberger            :SERVICE COMPANY
DATE            .                    12/30/2011            :LOG DATE(Composite Date for Composite LAP) (MM/DD/YYYY)
CLAB            .                     Province:            :County Label
CNTY            .                   Nova Scotia            :COUNTY
SLAB            .                                          :State/Province Label
STAT            .                                          :STATE or PROVINCE
PROV            .                                          :STATE or PROVINCE
CTRY            .                        Canada            :COUNTRY
CONT_REGION     .                    N. America            :Continent Region
SECT            .                       -999.25            :Section
TOWN            .                    Springhill            :Township
RANG            .                       -999.25            :Range
API             .                        435655            :API NUMBER
UWI             .                       -999.25            :UNIQUE WELL ID
LUL             .                          CANS            :Logging Unit Location
LUN             .                          2316            :Logging Unit Number
LOC             .                    Springhill            :FIELD LOCATION
FL1             .                                          :Field Location Line 1
FL2             .                       -999.25            :Field Location Line 2
LATI            .deg             45∞ 39' 26.518" N         :LATITUDE
LONG            .deg             64∞ 0' 51.347" W          :LONGITUDE
PDAT            .                            GL            :Local Permanent Datum
LMF             .                            KB            :Logging Measured From
APD             .m                      4.00000            :Elevation of Depth Reference (LMF) Above Permanent Datum
EPD             .m                    119.00000            :Elevation of Permanent Datum (PDAT) above Mean Sea Level
EKB             .m                    123.00000            :Elevation of Kelly Bushing Above Permanent Datum
EDF             .m                    122.70000            :Elevation of Drill Floor Above Permanent Datum
EGL             .m                    119.00000            :Elevation of Ground Level Above Permanent Datum
ECF             .m                      -999.25            :Elevation of Casing Flange above Permanent Datum
#--------------------------------------------------
#==================================================================
~Curve
DEPT .m                   : DEPTH
CALI .in                  : Caliper
DT .us/ft                 : Delta-t P-sonic
DTS .us/ft                : Delta-t Shear-sonic
DPHI_SAN .m3/m3           : Density Porosity (Sandstone)
DPHI_LIM .m3/m3           : Density Porosity (Limestone)
DPHI_DOL .m3/m3           : Density Porosity (Dolomite)
NPHI_SAN .m3/m3           : Enhanced Thermal Neutron Porosity (Sandstone)
NPHI_LIM .m3/m3           : Enhanced Thermal Neutron Porosity (Limestone)
NPHI_DOL .m3/m3           : Enhanced Thermal Neutron Porosity (Dolomite)
AMF .ohm.m                : Array Induction Mud Resistivity Fully Calibrated
AF90 .ohm.m               : Array Induction Four Foot Resistivity A90
AF10 .ohm.m               : Array Induction Four Foot Resistivity A10
AF20 .ohm.m               : Array Induction Four Foot Resistivity A20
AF60 .ohm.m               : Array Induction Four Foot Resistivity A60
AF30 .ohm.m               : Array Induction Four Foot Resistivity A30
RXOZ .ohm.m               : Invaded Formation Resistivity filtered at 18 inches
GR .gAPI                  : Gamma Ray
POTA .gAPI                : POTA (percent)
THOR .gAPI                : THOR (percent)
URAN .gAPI                : URAN (percent)
SP .mV                    : SP
RHOB .g/cm3               : RHOB
~Parameter
#==================================================================
~Ascii
# ...
 641.90880000
 6.5045986176 60.004272461 106.07609558 0.0300999992 0.0641300008 0.1353600025
 0.1407299936 0.0999300033 0.0388000011 1.4433000088 51.896770477 58.147701263
 55.231838226 52.274360657 55.176540375 72.354057312 131.87210083 3.1476099491
 16.398960114 3.1675498486 -410.4140930 2.6003301144
 642.06120000
 6.5102992058 59.965557098 105.20293427 0.0297200009 0.0637700036 0.1373800039
 0.1388099939 0.0980200022 0.0376599990 1.4435299635 51.424190521 57.288639069
 55.029411316 51.596511841 54.412990570 51.716949463 134.29609680 3.2471499443
 16.668949127 3.1605100632 -411.7279053 2.6009550095
 642.21360000
 6.5045986176 60.087997437 105.56053162 0.0325799994 0.0665199980 0.1369799972
 0.1416099966 0.1008099988 0.0393299982 1.4437600374 50.930130005 56.622871399
 54.554908752 50.805099487 53.559059143 51.899940491 133.52369690 3.1141700745
 16.911249161 3.3317399025 -412.6914063 2.5962481499
 642.36600000
 6.4817953110 60.282524109 104.65320587 0.0354400016 0.0692899972 0.1351999938
 0.1428299993 0.1020200029 0.0400599986 1.4425499439 50.127109528 55.826759338
 54.229320526 50.036880493 52.676601410 49.057281494 130.99229431 2.9592800140
 16.220470428 3.6264700890 -412.3418884 2.5915181637
 642.51840000
 6.4969959259 60.401573181 105.85512543 0.0330899991 0.0670199990 0.1303299963
 0.1410399973 0.1002300009 0.0389799997 1.4413399696 49.475288391 55.341838837
 53.792808533 49.476810455 52.104969025 68.196502686 132.45269775 3.0007500648
 16.312829971 3.5850100517 -411.3672180 2.5953960419
 642.67080000
 6.5159997940 60.191600800 105.81918335 0.0291700009 0.0632300004 0.1383100003
 0.1418000013 0.1009899974 0.0394399986 1.4411900043 49.006069183 55.260341644
 53.287590027 49.043300629 51.608470917 60.036899567 134.85220337 3.0333900452
 16.376459122 3.8132700920 -411.2265930 2.6018679142
 642.82320000
 6.5045986176 59.764331818 105.48987579 0.0249099992 0.0591199994 0.1326300055
 0.1438400000 0.1030199975 0.0406799987 1.4410400391 48.675491333 55.290790558
 52.568389893 48.775360107 51.239959717 60.584869385 138.20109558 3.0907299519
 16.365840912 3.9255402088 -410.7500000 2.6089022160
 642.97560000
 6.5502085686 59.754360199 106.19393921 0.0263100006 0.0604699999 0.1216600016
 0.1395699978 0.0987799987 0.0381099992 1.4406000376 48.589149475 55.686111450
 51.999828339 48.655979156 51.049209595 55.065109253 138.08979797 2.9883301258
 16.659070969 4.0641698837 -409.9815979 2.6065950394
 643.12800000
 6.5502085686 59.458278656 106.03376007 0.0223500002 0.0566500016 0.1323900074
 0.1384799927 0.0976999998 0.0374700017 1.4401700497 48.798030853 56.490638733
 51.876869202 49.090698242 51.250419617 52.819999695 136.91459656 3.0229098797
 16.492561340 3.8874099255 -409.3241882 2.6131298542
 643.28040000
 6.5559096336 59.346267700 105.93720245 0.0163400006 0.0508599989 0.1224099994
 0.1374900043 0.0967200026 0.0368900001 1.4399499893 49.785091400 57.295429230
 52.419448853 49.880779266 52.202388763 53.411220551 135.93640137 3.0696699619
 16.475448608 3.6075000763 -409.1445007 2.6230370998
 643.43280000
 6.5578107834 59.345443726 105.16568756 0.0122100003 0.0468700007 0.1135900021
 0.1387200058 0.0979399979 0.0376100019 1.4397200346 50.394828796 58.247798920
 52.596298218 50.249259949 52.620750427 74.135536194 132.06809998 3.0277500153
 15.649978638 3.5049800873 -408.5550842 2.6298530102
 643.58520000
 6.5578107834 59.510707855 104.98692322 0.0146100000 0.0491899997 0.1124399975
 0.1387899965 0.0980100036 0.0376500003 1.4388500452 51.035331726 59.010871887
 52.963798523 50.737930298 53.136989594 78.601470947 127.81880188 2.9153599739
 14.802889824 3.4816300869 -407.9492188 2.6258859634
 643.73760000
 6.5578107834 59.653873444 104.99933624 0.0182600003 0.0527100004 0.1205400005
 0.1397999972 0.0990099981 0.0382499993 1.4379700422 51.442131042 58.799381256
 53.317050934 51.048290253 53.434379578 74.219223022 125.97270203 2.8913500309
 14.629570007 3.2456300259 -407.8823853 2.6198740005
 643.89000000
 6.5578107834 59.554443359 106.86949158 0.0263500009 0.0605099984 0.1346800029
 0.1445499957 0.1037200019 0.0411100015 1.4384200573 51.498249054 57.923339844
 53.318809509 51.032909393 53.372100830 75.136146545 127.07649994 2.9646599293
 14.928060532 3.0955700874 -407.7460938 2.6065249443
 644.04240000
 6.5350079536 59.856742859 106.16439819 0.0313099995 0.0653000027 0.1417199969
 0.1460399926 0.1052000001 0.0420299992 1.4388799667 51.323211670 57.070999146
 53.114780426 50.841468811 53.115650177 82.757637024 129.03900146 3.0654101372
 15.639860153 2.8413898945 -407.3823853 2.5983400345
 644.19480000
 6.5426101685 59.992290497 106.20375061 0.0346199982 0.0684899986 0.1416099966
 0.1476899981 0.1068399996 0.0430600010 1.4393899441 51.336940765 56.399398804
 53.103229523 50.905979156 53.107608795 74.172897339 131.22189331 3.1052300930
 15.915600777 2.9298801422 -406.8047180 2.5928759575
 644.34720000
 6.5274057388 60.047275543 106.28652954 0.0310399998 0.0650399998 0.1367599964
 0.1472499967 0.1063999981 0.0427800007 1.4399100542 51.747421265 56.681758881
 53.458511353 51.376850128 53.551509857 59.720619202 130.71690369 3.1601600647
 15.476799965 2.9175400734 -406.4081116 2.5987811089
 644.49960000
 6.5122003555 60.088241577 106.12248993 0.0283899996 0.0624799989 0.1290200055
 0.1484200060 0.1075600013 0.0435199998 1.4409500360 52.707729340 58.113029480
 54.367679596 52.419071198 54.641498566 45.162448883 132.63420105 3.1792600155
 16.150169373 2.9918200970 -405.1054993 2.6031608582
 644.65200000
 6.5274057388 59.979854584 105.36435699 0.0260000005 0.0601800010 0.1339599937
 0.1492999941 0.1084399968 0.0440700017 1.4419900179 54.218799591 60.583698273
 55.664581299 54.007858276 56.102500916 45.620311737 131.33489990 3.1370799541
 15.902940750 3.0644700527 -403.7977905 2.6070959568
 644.80440000
 6.5274057388 59.688526154 105.21751404 0.0247799996 0.0590000004 0.1256600022
 0.1472599953 0.1064099967 0.0427899994 1.4426300526 56.009479523 62.950279236
 57.313121796 55.911499023 58.356121063 47.889431000 132.65829468 3.1693897247
 15.753230095 3.2078502178 -403.0820007 2.6091148853
 644.95680000
 6.5198030472 59.432586670 105.42723846 0.0201699995 0.0545499995 0.1236099973
 0.1484400034 0.1075799987 0.0435299985 1.4432799816 57.786609650 65.471191406
 59.205261230 57.784278870 60.343948364 71.658058167 130.12170410 3.1354501247
 14.748529434 3.3731601238 -402.3272095 2.6167190075
 645.10920000
 6.5274057388 59.194324493 105.46515656 0.0151300002 0.0496900007 0.1166599989
 0.1508300006 0.1099499986 0.0450400002 1.4435600042 59.849330902 66.994087219
 61.168380737 59.911869049 62.445079803 78.235221863 128.42489624 3.0768699646
 15.245030403 3.2147400379 -401.8594055 2.6250338554
 645.26160000
 6.5198030472 59.202919006 105.38176727 0.0087099997 0.0434999987 0.1191399992
 0.1558900028 0.1149699986 0.0483400002 1.4438500404 61.061260223 67.246887207
 62.609241486 61.396598816 64.220092773 75.790191650 123.54560089 2.9251198769
 15.030559540 3.1232600212 -401.3554993 2.6356220245
 645.41400000
 6.5122003555 59.200603485 104.98254395 0.0080700004 0.0428799987 0.1195399985
 0.1567499936 0.1158199981 0.0489000008 1.4430600405 61.179458618 66.174201965
 62.297859192 61.548130035 64.170097351 74.074661255 126.33640289 2.9163200855
 15.762660027 3.2103300095 -401.0881958 2.6366798878
 645.56640000
 6.5102992058 59.127479553 104.70327759 0.0078900000 0.0427000001 0.1061000004
 0.1515499949 0.1106600016 0.0454999991 1.4422700405 60.400688171 63.916351318
 61.020030975 60.712829590 62.773311615 90.012222290 127.70210266 2.9623298645
 15.706080437 3.2983500957 -400.8786926 2.6369860172
 645.71880000
 6.5274057388 59.328830719 104.90252686 0.0071999999 0.0420400016 0.1134300008
 0.1496399939 0.1087699980 0.0442899987 1.4403400421 58.726860046 60.573730469
 59.049678802 58.888950348 60.356849670 112.81829834 131.64849854 3.0279598236
 16.043979645 3.5340099335 -400.5078125 2.6381158829
 645.87120000
 6.5426101685 59.328586578 104.61647797 0.0062299999 0.0410999991 0.1190000027
 0.1482000053 0.1073400006 0.0433799997 1.4384100437 56.436340332 57.098781586
 56.057048798 55.967090607 57.092910767 95.054237366 129.44349670 2.9103000164
 15.915961266 3.5759098530 -400.5351868 2.6397240162
