# LAS format log file from PETREL
# Project units are specified as depth units
#==================================================================
~Version information
VERS.   2.0:
WRAP.   NO:
#==================================================================
~Well
STRT .m      197.51040000 :
STOP .m      951.89040000 :
STEP .m     0.15240000 :
NULL .        -999.250000 :
COMP.           : COMPANY
WELL.  P-135   : WELL
FLD.            : FIELD
LOC.            : LOCATION
SRVC.           : SERVICE COMPANY
DATE.  2014-09-16 16:30:35   : Log Export Date {yyyy-MM-dd HH:mm:ss}
PROV.           : PROVINCE
UWI.      : UNIQUE WELL ID
API.            : API NUMBER
#==================================================================
~Curve
DEPT .m                   : DEPTH
Sonic_despiked .us/ft     : Sonic_despiked
RHOB_despiked .g/cm3      : RHOB_despiked
TWT .ms                   : TWT
~Parameter
#==================================================================
~Ascii
# ...
 243.53520000  -999.250000 2.9615590572 54.566467285
 243.68760000  -999.250000 2.9592261314 54.636505127
 243.84000000  -999.250000 2.9503250122 54.706546783
 243.99240000  -999.250000 2.9363210201 54.776588440
 244.14480000  -999.250000 2.9203720093 54.846630096
 244.29720000  -999.250000 2.9115939140 54.916671753
 244.44960000  -999.250000 2.9133958817 54.986709595
 244.60200000  -999.250000 2.9211080074 55.056751251
 244.75440000  -999.250000 2.9238479137 55.126792908
 244.90680000  -999.250000 2.9188799858 55.196834564
 245.05920000  -999.250000 2.9083859921 55.266876221
 245.21160000  -999.250000 2.9031929970 55.336917877
 245.36400000  -999.250000 2.9032328129 55.406955719
 245.51640000  -999.250000 2.9074699879 55.476997375
 245.66880000  -999.250000 2.9054698944 55.547039032
 245.82120000  -999.250000 2.9019279480 55.617080688
 245.97360000  -999.250000 2.8993048668 55.687122345
 246.12600000  -999.250000 2.9061040878 55.757164001
 246.27840000  -999.250000 2.9183058739 55.827201843
 246.43080000  -999.250000 2.9308540821 55.897243500
 246.58320000  -999.250000 2.9336059093 55.967285156
 246.73560000  -999.250000 2.9261507988 56.037326813
 246.88800000  -999.250000 2.9101459980 56.107368469
 247.04040000  -999.250000 2.8902838230 56.177406311
 247.19280000  -999.250000 2.8842685223 56.247447968
 247.34520000  -999.250000 2.8782532215 56.317489624
 247.49760000  -999.250000 2.8722379208 56.387531281
 247.65000000  -999.250000 2.9344871044 56.457572937
 247.80240000  -999.250000 2.9426312447 56.527614594
 247.95480000  -999.250000 2.9507751465 56.597652435
 248.10720000  -999.250000 2.9589192867 56.667694092
 248.25960000  -999.250000 2.9670634270 56.737735748
 248.41200000  -999.250000 2.9752075672 56.807777405
 248.56440000  -999.250000 2.9833514690 56.877819061
 248.71680000  -999.250000 2.9914956093 56.947856903
 248.86920000  -999.250000 2.9996397495 57.017898560
 249.02160000  -999.250000 3.0077838898 57.087940216
 249.17400000  -999.250000 3.0159277916 57.157981873
 249.32640000  -999.250000 3.0240719318 57.228023529
 249.47880000  -999.250000 3.0054681301 57.298065186
 249.63120000  -999.250000 2.9778292179 57.368103027
 249.78360000  -999.250000 2.9555170536 57.438144684
 249.93600000  -999.250000 2.9500119686 57.508186340
 250.08840000  -999.250000 2.9566969872 57.578227997
 250.24080000  -999.250000 2.9532251358 57.648269653
 250.39320000  -999.250000 2.9372899532 57.718307495
 250.54560000  -999.250000 2.9193120003 57.788349152
 250.69800000  -999.250000 2.9093580246 57.858390808
 250.85040000  -999.250000 2.9001111984 57.928432465
 251.00280000  -999.250000 2.8870940208 57.998474121
 251.15520000  -999.250000 2.8757081032 58.068515778
 251.30760000  -999.250000 2.8672990799 58.138553619
 251.46000000  -999.250000 2.8641741276 58.208595276
 251.61240000  -999.250000 2.8632709980 58.278636932
 251.76480000  -999.250000 2.8580911160 58.348678589
 251.91720000  -999.250000 2.8586773872 58.418720245
 252.06960000  -999.250000 2.8592634201 58.488758087
 252.22200000  -999.250000 2.8598494530 58.558799744
 252.37440000  -999.250000 2.8604357243 58.628841400
 252.52680000  -999.250000 2.8610219955 58.698883057
 252.67920000  -999.250000 2.8616080284 58.768924713
 252.83160000  -999.250000 2.9024860859 58.838966370
 252.98400000  -999.250000 2.9232351780 58.909004211
 253.13640000  -999.250000 2.9127128124 58.979045868
 253.28880000  -999.250000 2.8856739998 59.049087524
 253.44120000  -999.250000 2.8681950569 59.119129181
 253.59360000  -999.250000 2.8805580139 59.189170837
 253.74600000  -999.250000 2.9422109127 59.259208679
 253.89840000  -999.250000 2.9398617744 59.329250336
 254.05080000  -999.250000 2.9375126362 59.399291992
 254.20320000  -999.250000 2.9351634979 59.469333649
 254.35560000  -999.250000 2.9328145981 59.539375305
 254.50800000  -999.250000 2.9304654598 59.609416962
 254.66040000  -999.250000 2.9281163216 59.679454803
 254.81280000  -999.250000 2.9257671833 59.749496460
 254.96520000  -999.250000 2.9234180450 59.819538116
 255.11760000  -999.250000 2.8860840797 59.889579773
 255.27000000  -999.250000 2.8856730461 59.959621429
 255.42240000  -999.250000 2.8900558949 60.029663086
 255.57480000  -999.250000 2.8904259205 60.099700928
 255.72720000  -999.250000 2.8929090500 60.169742584
 255.87960000  -999.250000 2.8953168392 60.239784241
 256.03200000  -999.250000 2.9008820057 60.309825897
 256.18440000  -999.250000 2.8961241245 60.379867554
 256.33680000  -999.250000 2.8773639202 60.449905396
 256.48920000  -999.250000 2.8568601608 60.519947052
 256.64160000  -999.250000 2.8523330688 60.589988708
 256.79400000  -999.250000 2.8659460545 60.660030365
 256.94640000  -999.250000 2.8740210533 60.730072021
 257.09880000  -999.250000 2.8668749332 60.800113678
 257.25120000  -999.250000 2.8515458107 60.870151520
 257.40360000  -999.250000 2.8412749767 60.940193176
 257.55600000  -999.250000 2.8443439007 61.010234833
 257.70840000  -999.250000 2.8506410122 61.080276489
 257.86080000  -999.250000 2.8618249893 61.150318146
 258.01320000  -999.250000 2.8706221581 61.220355988
 258.16560000  -999.250000 2.8827400208 61.290397644
 258.31800000  -999.250000 2.8881990910 61.360439301
 258.47040000  -999.250000 2.8870339394 61.430480957
 258.62280000  -999.250000 2.8785738945 61.500522614
 258.77520000  -999.250000 2.8694698811 61.570564270
 258.92760000  -999.250000 2.8607528210 61.640602112
 259.08000000  -999.250000 2.8528859615 61.710643768
 259.23240000  -999.250000 2.8513898849 61.780685425
 259.38480000  -999.250000 2.8567461967 61.850727081
 259.53720000  -999.250000 2.8677270412 61.920768738
 259.68960000  -999.250000 2.8767199516 61.990806580
 259.84200000  -999.250000 2.8800978661 62.060848236
 259.99440000  -999.250000 2.8772890568 62.130889893
 260.14680000  -999.250000 2.8707289696 62.200931549
 260.29920000  -999.250000 2.8657310009 62.270973206
 260.45160000  -999.250000 2.8631210327 62.341014862
 260.60400000  -999.250000 2.8629899025 62.411052704
 260.75640000  -999.250000 2.8545711040 62.481094360
 260.90880000  -999.250000 2.8313689232 62.551136017
 261.06120000  -999.250000 2.8313093185 62.621177673
 261.21360000  -999.250000 2.8312494755 62.691219330
 261.36600000  -999.250000 2.8311898708 62.761257172
 261.51840000  -999.250000 2.8311300278 62.831298828
 261.67080000  -999.250000 2.8310704231 62.901340485
 261.82320000  -999.250000 2.8310108185 62.971382141
 261.97560000  -999.250000 2.8309509754 63.041423798
 262.12800000  -999.250000 2.8308913708 63.111465454
 262.28040000 68.389709473 2.8308315277 63.181503296
 262.43280000 68.547370911 2.8307719231 63.251544952
 262.58520000 68.705032349 2.8536319733 63.321586609
 262.73760000 68.862701416 2.8693988323 63.391628265
 262.89000000 69.020362854 2.8784189224 63.461669922
 263.04240000 69.178024292 2.8835778236 63.531711578
 263.19480000 69.335685730 2.8976809978 63.601749420
 263.34720000 69.493347168 2.9261250496 63.671791077
 263.49960000 69.651008606 2.9594290257 63.741832733
 263.65200000 69.605499268 2.9842770100 63.811874390
 263.80440000 69.280700684 2.9851908684 63.881916046
 263.95680000 69.086029053 2.9649980068 63.951953888
 264.10920000 68.630897522 2.9368240833 64.021995544
 264.26160000 68.772674561 2.9231832027 64.092041016
 264.41400000 68.914451599 2.9298629761 64.162078857
 264.56640000 69.032760620 2.9582858086 64.232116699
 264.71880000 69.151062012 2.9942400455 64.302162170
 264.87120000 69.269363403 3.0306649208 64.372200012
 265.02360000 69.387672424 3.0264348984 64.442245483
 265.17600000 69.505981445 3.0222051144 64.512283325
 265.32840000 69.624282837 3.0179750919 64.582321167
 265.48080000 69.742584229 3.0137450695 64.652366638
 265.63320000 69.860893250 3.0095150471 64.722404480
 265.78560000 69.979202271 3.0052852631 64.792449951
 265.93800000 70.097503662 3.0010552406 64.862487793
 266.09040000 70.215805054 2.9968252182 64.932525635
 266.24280000 70.334114075 2.9925951958 65.002571106
 266.39520000 70.452423096 2.9883654118 65.072608948
