# LAS format log file from PETREL
# Project units are specified as depth units
#==================================================================
~Version information
VERS.   2.0:
WRAP.   YES:
#==================================================================
~Well
STRT .m      197.51040000 :
STOP .m      951.89040000 :
STEP .m     0.15240000 :
NULL .        -999.250000 :
COMP            .                Eastrock Resources LTD.   :COMPANY
WELL            .                Eastrock Lauren #1        :WELL NAME
FLD             .                        Lauren            :FIELD NAME
RIGN            .                    Foragaz #3            :Rig Name
RIGTYP          .                          Land            :Rig Type
SON             .                    BX61-00001            :Service Order Number
SRVC            .                  Schlumberger            :SERVICE COMPANY
DATE            .                    12/30/2011            :LOG DATE(Composite Date for Composite LAP) (MM/DD/YYYY)
CLAB            .                     Province:            :County Label
CNTY            .                   Nova Scotia            :COUNTY
SLAB            .                                          :State/Province Label
STAT            .                                          :STATE or PROVINCE
PROV            .                                          :STATE or PROVINCE
CTRY            .                        Canada            :COUNTRY
CONT_REGION     .                    N. America            :Continent Region
SECT            .                       -999.25            :Section
TOWN            .                    Springhill            :Township
RANG            .                       -999.25            :Range
API             .                        435655            :API NUMBER
UWI             .                       -999.25            :UNIQUE WELL ID
LUL             .                          CANS            :Logging Unit Location
LUN             .                          2316            :Logging Unit Number
LOC             .                    Springhill            :FIELD LOCATION
FL1             .                                          :Field Location Line 1
FL2             .                       -999.25            :Field Location Line 2
LATI            .deg             45∞ 39' 26.518" N         :LATITUDE
LONG            .deg             64∞ 0' 51.347" W          :LONGITUDE
PDAT            .                            GL            :Local Permanent Datum
LMF             .                            KB            :Logging Measured From
APD             .m                      4.00000            :Elevation of Depth Reference (LMF) Above Permanent Datum
EPD             .m                    119.00000            :Elevation of Permanent Datum (PDAT) above Mean Sea Level
EKB             .m                    123.00000            :Elevation of Kelly Bushing Above Permanent Datum
EDF             .m                    122.70000            :Elevation of Drill Floor Above Permanent Datum
EGL             .m                    119.00000            :Elevation of Ground Level Above Permanent Datum
ECF             .m                      -999.25            :Elevation of Casing Flange above Permanent Datum
#--------------------------------------------------
#==================================================================
~Curve
DEPT .m                   : DEPTH
CALI .in                  : Caliper
DT .us/ft                 : Delta-t P-sonic
DTS .us/ft                : Delta-t Shear-sonic
DPHI_SAN .m3/m3           : Density Porosity (Sandstone)
DPHI_LIM .m3/m3           : Density Porosity (Limestone)
DPHI_DOL .m3/m3           : Density Porosity (Dolomite)
NPHI_SAN .m3/m3           : Enhanced Thermal Neutron Porosity (Sandstone)
NPHI_LIM .m3/m3           : Enhanced Thermal Neutron Porosity (Limestone)
NPHI_DOL .m3/m3           : Enhanced Thermal Neutron Porosity (Dolomite)
AMF .ohm.m                : Array Induction Mud Resistivity Fully Calibrated
AF90 .ohm.m               : Array Induction Four Foot Resistivity A90
AF10 .ohm.m               : Array Induction Four Foot Resistivity A10
AF20 .ohm.m               : Array Induction Four Foot Resistivity A20
AF60 .ohm.m               : Array Induction Four Foot Resistivity A60
AF30 .ohm.m               : Array Induction Four Foot Resistivity A30
RXOZ .ohm.m               : Invaded Formation Resistivity filtered at 18 inches
GR .gAPI                  : Gamma Ray
POTA .gAPI                : POTA (percent)
THOR .gAPI                : THOR (percent)
URAN .gAPI                : URAN (percent)
SP .mV                    : SP
RHOB .g/cm3               : RHOB
~Parameter
#==================================================================
~Ascii
# ...
 876.45240000
 6.4019765854 60.267372131 105.69333649 0.0554200001 0.0885699987 0.1634700000
 0.1299999952 0.0892800018 0.0326200016 1.0485600233 25.596879959 28.214799881
 28.297140121 25.326780319 26.370569229 30.839330673 147.72470093 3.4171700478
 18.211479187 4.1575498581 -455.9548950 2.5585529804
 876.60480000
 6.3905749321 60.516086578 106.29204559 0.0546999983 0.0878700018 0.1595699936
 0.1427800059 0.1019700021 0.0400400013 1.0479500294 26.222400665 29.095659256
 28.972919464 25.904340744 26.963169098 23.004089355 143.53320313 3.3296399117
 17.826869965 3.9710698128 -453.4757080 2.5597479343
 876.75720000
 6.4133782387 60.462047577 106.07384491 0.0553800017 0.0885299966 0.1468199939
 0.1482599974 0.1074000001 0.0434099995 1.0485800505 27.191429138 30.233390808
 30.035150528 26.941160202 28.033180237 31.696069717 139.62139893 3.2385098934
 16.923549652 4.0193901062 -452.1701050 2.5586159229
 876.90960000
 6.3981771469 60.219760895 105.85563660 0.0558300018 0.0889599994 0.1456999928
 0.1433299929 0.1025099978 0.0403699987 1.0492000580 28.194339752 31.298589706
 31.264640808 28.199369431 29.379579544 36.795818329 139.44439697 3.2600600719
 17.100210190 3.8091599941 -450.6632080 2.5578858852
 877.06200000
 6.4133782387 59.904567719 105.84883881 0.0561500005 0.0892700031 0.1476099938
 0.1265799999 0.0858900025 0.0307400003 1.0479500294 29.353120804 32.093719482
 32.114768982 29.096179962 30.421600342 84.652366638 140.23449707 3.2322101593
 17.196769714 3.8576400280 -449.9006958 2.5573501587
 877.21440000
 6.4133782387 59.875095367 105.86066437 0.0499799997 0.0833199993 0.1525000036
 0.1215900034 0.0809400007 0.0280799996 1.0467000008 29.619960785 32.243480682
 32.206459045 29.283149719 30.613090515 74.703933716 142.11920166 3.2645399570
 16.923578262 4.1625699997 -449.5450745 2.5675299168
 877.36680000
 6.4437870979 59.584041595 105.79270172 0.0440800004 0.0776199996 0.1529199928
 0.1282200068 0.0875200033 0.0316400006 1.0458099842 29.052400589 30.860420227
 31.331319809 28.804870605 29.906620026 45.125789642 141.88299561 3.1850402355
 17.490219116 3.9675199986 -449.7256775 2.5772638321
 877.51920000
 6.4589881897 60.039043427 106.47685242 0.0377600007 0.0715299994 0.1434500068
 0.1433199942 0.1024999991 0.0403600000 1.0449199677 28.567010880 29.779159546
 30.294290543 28.193840027 29.280950546 27.947179794 139.76379395 3.1353299618
 17.073570251 3.9444799423 -449.7978210 2.5876908302
 877.67160000
 6.4513897896 60.511943817 107.26763153 0.0370999984 0.0708800033 0.1366900057
 0.1516399980 0.1107499972 0.0455599986 1.0468000174 27.858009338 28.997100830
 29.648170471 27.656759262 28.523639679 26.193220139 134.97940063 3.0594499111
 15.434050560 4.0943398476 -449.5173950 2.5887880325
 877.82400000
 6.4589881897 61.024341583 107.51911926 0.0346699990 0.0685399994 0.1329299957
 0.1549199969 0.1140099987 0.0476999991 1.0486799479 27.543680191 28.297929764
 29.000980377 27.354679108 28.068670273 31.176000595 135.34770203 3.0205101967
 15.627170563 4.1502199173 -451.0551147 2.5927910805
 877.97640000
 6.4589881897 61.483646393 108.20924377 0.0385899991 0.0723199993 0.1388799995
 0.1534499973 0.1125499979 0.0467300005 1.0446399450 27.133630753 27.570880890
 28.521879196 27.043659210 27.583950043 35.234458923 129.69110107 2.9351100922
 15.510350227 3.4823298454 -453.2569885 2.5863268375
 878.12880000
 6.4741930962 61.370563507 107.00439453 0.0435900018 0.0771500021 0.1386500001
 0.1522399932 0.1113499999 0.0459499992 1.0406099558 26.815919876 27.010999680
 28.007419586 26.746629715 27.121519089 30.636800766 129.93350220 3.0216999054
 15.768040657 3.1288499832 -453.1984863 2.5780777931
 878.28120000
 6.4893937111 61.511688232 107.59510040 0.0452300012 0.0787300020 0.1476799995
 0.1571000069 0.1161699966 0.0491399989 1.0379300117 26.547119141 26.553960800
 27.506969452 26.429040909 26.631540298 24.571920395 126.30069733 2.9570400715
 15.391289711 2.9841301441 -451.4201050 2.5753650665
 878.43360000
 6.4703941345 61.747970581 108.07714844 0.0405299999 0.0741999969 0.1508799940
 0.1599600017 0.1190100014 0.0510700010 1.0352499485 26.370389938 26.176090240
 27.125610352 26.139759064 26.240320206 22.675399780 129.95260620 3.1228899956
 15.777539253 2.8646700382 -449.7188110 2.5831260681
 878.58600000
 6.4817953110 61.832946777 108.96550751 0.0378799997 0.0716300011 0.1453700066
 0.1588899940 0.1179499999 0.0503400005 1.0356299877 26.273139954 26.043300629
 26.878070831 25.929100037 25.999349594 25.943830490 133.46989441 3.2610599995
 15.712038994 2.9500200748 -449.8640137 2.5875048637
 878.73840000
 6.4893937111 62.015674591 109.17572784 0.0415299982 0.0751599967 0.1241500005
 0.1521600038 0.1112700030 0.0458999984 1.0360000134 26.196680069 26.010250092
 26.767549515 25.748720169 25.896110535 37.408531189 137.46740723 3.4171297550
 16.380880356 2.8531699181 -452.3819885 2.5814771652
 878.89080000
 6.4817953110 62.258388519 108.67424011 0.0408300012 0.0744900033 0.1321900040
 0.1513999999 0.1105199978 0.0454099998 1.0334899426 26.249069214 25.858989716
 26.786430359 25.591720581 25.850639343 40.766521454 138.32139587 3.3887300491
 17.096899033 2.6372199059 -455.3089905 2.5826280117
 879.04320000
 6.4665904045 62.242324829 108.59185791 0.0412300006 0.0748699978 0.1544699967
 0.1524900049 0.1115999967 0.0461100005 1.0309699774 26.235530853 25.858959198
 26.806720734 25.393499374 25.743930817 32.494911194 138.91259766 3.4147799015
 17.071510315 2.6744499207 -458.4043884 2.5819709301
 879.19560000
 6.4513897896 62.107421875 107.26826477 0.0457700007 0.0792500004 0.1535000056
 0.1518599987 0.1109799966 0.0457100011 1.0293899775 26.554670334 26.067399979
 27.103590012 25.358579636 25.831329346 26.721380234 139.19290161 3.4438199997
 16.800029755 2.7666599751 -458.4118042 2.5744769573
 879.34800000
 6.4285826683 61.829959869 107.67659760 0.0538199991 0.0870200023 0.1514800042
 0.1433800012 0.1025599986 0.0403999984 1.0278099775 26.796680450 26.446889877
 27.571439743 25.486860275 26.087770462 31.376010895 144.12690735 3.5218298435
 18.073308945 2.6498301029 -456.7083130 2.5611898899
 879.50040000
 6.4361853600 61.860774994 106.97653961 0.0531699993 0.0863900036 0.1487900019
 0.1404699981 0.0996700004 0.0386399999 1.0281699896 26.863540649 26.973300934
 28.199970245 25.702020645 26.502630234 32.017200470 143.75210571 3.5370397568
 18.179861069 2.5543999672 -454.1065979 2.5622730255
 879.65280000
 6.4969959259 61.312656403 106.58029938 0.0451299995 0.0786300004 0.1418099999
 0.1375699937 0.0967900008 0.0369299985 1.0285300016 27.155569077 27.868700027
 29.250749588 26.262550354 27.352329254 27.621650696 146.37770081 3.6292400360
 18.204629898 2.6705100536 -452.6388855 2.5755372047
 879.80520000
 6.5045986176 61.390014648 106.79484558 0.0413599983 0.0750000030 0.1465599984
 0.1447699964 0.1039400026 0.0412500016 1.0298299789 27.654670715 28.917039871
 30.327070236 26.893880844 28.096820831 26.684680939 142.78750610 3.4496300220
 17.331850052 2.9535098076 -451.3934021 2.5817570686
 879.95760000
 6.4969959259 61.366813660 107.51667786 0.0397699997 0.0734599978 0.1447000057
 0.1401499957 0.0993499979 0.0384499989 1.0311299562 27.906560898 29.967239380
 31.241500854 27.324489594 28.932600021 29.992359161 145.65649414 3.4722101688
 17.689321518 3.0862100124 -451.2603760 2.5843820572
 880.11000000
 6.4817953110 60.835060120 108.42513275 0.0428999998 0.0764899999 0.1468199939
 0.1371700019 0.0964000002 0.0366999991 1.0301200151 28.605279922 31.108179092
 32.312480927 28.161880493 30.076150894 29.156600952 144.74929810 3.4003198147
 17.566141129 3.1238200665 -451.7464905 2.5792100430
 880.26240000
 6.4285826683 60.755355835 107.85092163 0.0445600003 0.0780799985 0.1491200030
 0.1265600026 0.0858699977 0.0307299998 1.0291099548 29.343389511 32.184040070
 33.218078613 29.313980103 31.041040421 26.397659302 150.13670349 3.4565198421
 18.347379684 3.3541300297 -450.4522095 2.5764789581
 880.41480000
 6.4133782387 60.686931610 107.44309235 0.0439199992 0.0774699971 0.1437699944
 0.1228799969 0.0822300017 0.0287699997 1.0277500153 29.681119919 32.581108093
 33.421669006 29.827230453 31.347330093 27.149829865 153.81210327 3.4883997440
 18.441869736 3.8191201687 -447.8437805 2.5775320530
