# LAS format log file from PETREL
# Project units are specified as depth units
#==================================================================
~Version information
VERS.   2.0:
WRAP.   YES:
#==================================================================
~Well
STRT .m      197.51040000 :
STOP .m      951.89040000 :
STEP .m     0.15240000 :
NULL .        -999.250000 :
COMP            .                Eastrock Resources LTD.   :COMPANY
WELL            .                Eastrock Lauren #1        :WELL NAME
FLD             .                        Lauren            :FIELD NAME
RIGN            .                    Foragaz #3            :Rig Name
RIGTYP          .                          Land            :Rig Type
SON             .                    BX61-00001            :Service Order Number
SRVC            .                  Schlumberger            :SERVICE COMPANY
DATE            .                    12/30/2011            :LOG DATE(Composite Date for Composite LAP) (MM/DD/YYYY)
CLAB            .                     Province:            :County Label
CNTY            .                   Nova Scotia            :COUNTY
SLAB            .                                          :State/Province Label
STAT            .                                          :STATE or PROVINCE
PROV            .                                          :STATE or PROVINCE
CTRY            .                        Canada            :COUNTRY
CONT_REGION     .                    N. America            :Continent Region
SECT            .                       -999.25            :Section
TOWN            .                    Springhill            :Township
RANG            .                       -999.25            :Range
API             .                        435655            :API NUMBER
UWI             .                       -999.25            :UNIQUE WELL ID
LUL             .                          CANS            :Logging Unit Location
LUN             .                          2316            :Logging Unit Number
LOC             .                    Springhill            :FIELD LOCATION
FL1             .                                          :Field Location Line 1
FL2             .                       -999.25            :Field Location Line 2
LATI            .deg             45∞ 39' 26.518" N         :LATITUDE
LONG            .deg             64∞ 0' 51.347" W          :LONGITUDE
PDAT            .                            GL            :Local Permanent Datum
LMF             .                            KB            :Logging Measured From
APD             .m                      4.00000            :Elevation of Depth Reference (LMF) Above Permanent Datum
EPD             .m                    119.00000            :Elevation of Permanent Datum (PDAT) above Mean Sea Level
EKB             .m                    123.00000            :Elevation of Kelly Bushing Above Permanent Datum
EDF             .m                    122.70000            :Elevation of Drill Floor Above Permanent Datum
EGL             .m                    119.00000            :Elevation of Ground Level Above Permanent Datum
ECF             .m                      -999.25            :Elevation of Casing Flange above Permanent Datum
#--------------------------------------------------
#==================================================================
~Curve
DEPT .m                   : DEPTH
CALI .in                  : Caliper
DT .us/ft                 : Delta-t P-sonic
DTS .us/ft                : Delta-t Shear-sonic
DPHI_SAN .m3/m3           : Density Porosity (Sandstone)
DPHI_LIM .m3/m3           : Density Porosity (Limestone)
DPHI_DOL .m3/m3           : Density Porosity (Dolomite)
NPHI_SAN .m3/m3           : Enhanced Thermal Neutron Porosity (Sandstone)
NPHI_LIM .m3/m3           : Enhanced Thermal Neutron Porosity (Limestone)
NPHI_DOL .m3/m3           : Enhanced Thermal Neutron Porosity (Dolomite)
AMF .ohm.m                : Array Induction Mud Resistivity Fully Calibrated
AF90 .ohm.m               : Array Induction Four Foot Resistivity A90
AF10 .ohm.m               : Array Induction Four Foot Resistivity A10
AF20 .ohm.m               : Array Induction Four Foot Resistivity A20
AF60 .ohm.m               : Array Induction Four Foot Resistivity A60
AF30 .ohm.m               : Array Induction Four Foot Resistivity A30
RXOZ .ohm.m               : Invaded Formation Resistivity filtered at 18 inches
GR .gAPI                  : Gamma Ray
POTA .gAPI                : POTA (percent)
THOR .gAPI                : THOR (percent)
URAN .gAPI                : URAN (percent)
SP .mV                    : SP
RHOB .g/cm3               : RHOB
~Parameter
#==================================================================
~Ascii
# ...
 547.26840000
 6.4133782387 60.288066864 106.32765198 0.0581200011 0.0911699980 0.1552799940
 0.1422899961 0.1014799997 0.0397399999 1.4549700022 28.817659378 29.824840546
 30.790840149 30.020639420 30.515169144 41.852260590 140.96490479 3.3096699715
 16.588239670 3.6832001209 -411.6480103 2.5541009903
 547.42080000
 6.4133782387 60.539222717 106.86803436 0.0590300001 0.0920400023 0.1508200020
 0.1472900063 0.1064400002 0.0428100005 1.4536499977 29.211080551 29.889400482
 31.017410278 30.424600601 30.862789154 39.566738129 141.10519409 3.3071398735
 16.835180283 3.6568999290 -412.3980103 2.5526080132
 547.57320000
 6.4133782387 60.855819702 106.32582092 0.0603599995 0.0933300033 0.1557999998
 0.1491599977 0.1082900017 0.0439799987 1.4542100430 29.454889297 30.176460266
 31.048709869 30.706590652 31.068689346 36.013721466 137.96670532 3.2019801140
 16.085079193 3.7612798214 -413.1578979 2.5504109859
 547.72560000
 6.4247837067 61.251998901 107.06285858 0.0625599995 0.0954499990 0.1652300060
 0.1474699974 0.1066199988 0.0429200009 1.4547699690 29.796209335 30.400979996
 31.196380615 31.127620697 31.374399185 38.928810120 138.88920593 3.1746499538
 16.786619186 3.6851799488 -413.5218811 2.5467820168
 547.87800000
 6.4285826683 61.924293518 108.02996063 0.0643000007 0.0971399993 0.1692000031
 0.1472000033 0.1063499972 0.0427500010 1.4537500143 30.533470154 30.770309448
 31.555999756 31.530199051 31.834739685 37.997890472 134.55290222 3.0724699497
 15.890660286 3.6022300720 -413.6447144 2.5438988209
 548.03040000
 6.4285826683 62.315475464 107.30252838 0.0636800006 0.0965399966 0.1651600003
 0.1504400074 0.1095699966 0.0447999984 1.4527299404 31.309549332 31.405820847
 32.075550079 32.023979187 32.344921112 40.964820862 136.02290344 3.1914498806
 16.223909378 3.3552601337 -413.9144897 2.5449221134
 548.18280000
 6.4057798386 62.132171631 107.27841187 0.0579699986 0.0910200030 0.1567499936
 0.1518500000 0.1109599993 0.0456999987 1.4538400173 32.311241150 32.098121643
 32.847259521 32.661361694 33.052181244 38.523391724 135.01890564 3.2305200100
 16.509998322 2.9225499630 -414.1875000 2.5543570518
 548.33520000
 6.4133782387 62.070571899 107.60165405 0.0527400002 0.0859799981 0.1568800062
 0.1443800032 0.1035500020 0.0410099998 1.4549499750 33.004119873 32.623538971
 33.679939270 33.256031036 33.736721039 47.058170319 139.34019470 3.3804800510
 16.928239822 2.9261701107 -414.3486938 2.5629751682
 548.48760000
 6.4133782387 62.080474854 107.74993896 0.0536199994 0.0868199989 0.1484699994
 0.1379300058 0.0971499979 0.0371400006 1.4561799765 32.978771210 32.516361237
 33.927150726 33.144481659 33.739799500 49.014591217 138.38859558 3.2140500546
 17.437580109 3.0791199207 -414.5132141 2.5615339279
 548.64000000
 6.4133782387 62.047767639 108.17425537 0.0607299991 0.0936800018 0.1569699943
 0.1404000074 0.0996000022 0.0386000015 1.4574199915 32.318790436 31.835380554
 33.515579224 32.404609680 33.080631256 46.174091339 140.04840088 3.3614501953
 17.067729950 3.0093498230 -414.8058777 2.5498020649
 548.79240000
 6.4133782387 61.963764191 107.97048950 0.0670100003 0.0997499973 0.1668599993
 0.1407900006 0.0999900028 0.0388399996 1.4590400457 31.250810623 31.131990433
 32.634048462 31.287179947 31.993469238 37.834400177 137.75590515 3.3021199703
 16.745969772 3.0715000629 -413.4275818 2.5394351482
 548.94480000
 6.4019765854 62.177188873 107.71022034 0.0681200027 0.1008199975 0.1784999967
 0.1374399960 0.0966700017 0.0368600003 1.4606599808 29.686910629 30.531179428
 31.563159943 30.027959824 30.794630051 43.819698334 139.97169495 3.3360898495
 16.477180481 3.4061300755 -411.9342041 2.5376009941
 549.09720000
 6.4209799767 62.377593994 109.06677246 0.0591700003 0.0921799988 0.1579499990
 0.1312299967 0.0905100033 0.0333099999 1.4606599808 28.290790558 29.735960007
 30.489810944 28.779119492 29.634550095 57.441669464 139.50950623 3.3245499134
 16.016689301 3.5144100189 -411.5405884 2.5523660183
 549.24960000
 6.4133782387 62.417217255 109.90917206 0.0517299995 0.0850000009 0.1473699957
 0.1325699985 0.0918300003 0.0340600014 1.4606499672 27.336450577 28.907449722
 29.416530609 27.646839142 28.528869629 65.972328186 142.51089478 3.3521599770
 16.461778641 3.6275501251 -412.1775818 2.5646488667
 549.40200000
 6.4247837067 62.598571777 109.99761963 0.0468499996 0.0803000033 0.1429799944
 0.1407900006 0.0999900028 0.0388399996 1.4606200457 26.277889252 28.151460648
 28.412830353 26.647369385 27.515340805 64.167037964 139.30999756 3.3465299606
 15.528980255 3.6048901081 -412.6809082 2.5726940632
 549.55440000
 6.4304842949 62.435626984 109.29136658 0.0535399988 0.0867500007 0.1581899971
 0.1422899961 0.1014799997 0.0397399999 1.4606000185 25.313499451 27.294710159
 27.342950821 25.598640442 26.484840393 63.444141388 139.32620239 3.3073801994
 15.904710770 3.6475200653 -412.2664185 2.5616621971
 549.70680000
 6.3829722404 63.129901886 110.66666412 0.0615900010 0.0945099965 0.1755000055
 0.1430000067 0.1021799967 0.0401699990 1.4605100155 24.438219070 26.574649811
 26.480339050 24.695140839 25.610469818 75.266647339 137.77139282 3.2387800217
 15.585359573 3.7975602150 -412.2599182 2.5483829975
 549.85920000
 6.4247837067 63.304061890 111.01968384 0.0683100000 0.1010000035 0.1627800018
 0.1410599947 0.1002499983 0.0390000008 1.4604300261 23.851869583 26.016000748
 25.794780731 23.996570587 24.913200378 57.264320374 140.46659851 3.2672498226
 15.688920021 4.0205302238 -413.1875000 2.5372881889
 550.01160000
 6.4247837067 63.365055084 109.68795013 0.0683000013 0.1009899974 0.1598799974
 0.1448200047 0.1039900035 0.0412800014 1.4613699913 23.554269791 25.740169525
 25.387899399 23.600439072 24.501329422 56.920360565 139.40649414 3.2371599674
 15.817858696 3.9950799942 -413.6382141 2.5373120308
 550.16400000
 6.3677678108 63.250507355 110.21707916 0.0625099987 0.0954099968 0.1657000035
 0.1438000053 0.1029800028 0.0406499989 1.4623199701 23.626930237 25.962419510
 25.438089371 23.636819839 24.542129517 65.111198425 137.48379517 3.3484897614
 15.159999847 3.7348799706 -413.4440918 2.5468511581
 550.31640000
 6.3677678108 63.034679413 109.82577515 0.0596599989 0.0926499963 0.1633100063
 0.1388300061 0.0980399996 0.0376700014 1.4626699686 24.070850372 26.683280945
 26.049819946 24.154670715 25.109489441 83.979171753 134.81019592 3.2436602116
 14.690170288 3.9066998959 -412.5395203 2.5515680313
 550.46880000
 6.3525667191 62.741737366 109.74927521 0.0590300001 0.0920400023 0.1497000009
 0.1343100071 0.0935600027 0.0350500010 1.4630199671 24.796319962 27.484279633
 26.910549164 24.852680206 25.848230362 76.869667053 135.83880615 3.2574999332
 14.873169899 3.7942299843 -411.8519897 2.5526058674
 550.62120000
 6.3525667191 62.886764526 108.80461121 0.0598299988 0.0928200036 0.1577599943
 0.1358300000 0.0950699970 0.0359200016 1.4613599777 25.313390732 28.252920151
 27.583909988 25.497089386 26.632059097 53.536331177 136.02189636 3.3705101013
 15.136569977 3.4735298157 -411.9803162 2.5512838364
 550.77360000
 6.3601694107 61.943439484 108.65666199 0.0594899990 0.0924900025 0.1519799978
 0.1383800060 0.0975999981 0.0374099985 1.4596899748 25.984569550 29.048040390
 28.267330170 26.202600479 27.370170593 48.684860229 135.25819397 3.3550400734
 15.654338837 3.2299098969 -411.8979797 2.5518429279
 550.92600000
 6.3449645042 62.501918793 108.75306702 0.0537699983 0.0869700015 0.1534399986
 0.1377100050 0.0969400033 0.0370200016 1.4611200094 26.469739914 29.179019928
 28.472759247 26.545700073 27.609930038 53.327831268 135.52949524 3.4127898216
 16.626789093 2.8029201031 -411.5558777 2.5612750053
 551.07840000
 6.3221611977 62.574405670 108.89257050 0.0508899987 0.0841900036 0.1573199928
 0.1379999965 0.0972200036 0.0371900015 1.4625400305 26.579439163 28.708299637
 27.891269684 26.234680176 27.121519089 55.469291687 134.48440552 3.3548898697
 16.348468781 2.8457100391 -411.8388062 2.5660271645
 551.23080000
 6.3221611977 62.864849091 109.58678436 0.0465300009 0.0799899995 0.1463000029
 0.1402499974 0.0994499996 0.0385099985 1.4619200230 26.538370132 28.352350235
 27.501520157 26.049240112 26.833070755 58.560260773 135.52239990 3.3285100460
 16.682998657 2.8929100037 -412.7500000 2.5732228756
