# LAS format log file from PETREL
# Project units are specified as depth units
#==================================================================
~Version information
VERS.   2.0:
WRAP.   NO:
#==================================================================
~Well
STRT .m      197.51040000 :
STOP .m      951.89040000 :
STEP .m     0.15240000 :
NULL .        -999.250000 :
COMP.           : COMPANY
WELL.  P-135   : WELL
FLD.            : FIELD
LOC.            : LOCATION
SRVC.           : SERVICE COMPANY
DATE.  2014-09-16 16:30:35   : Log Export Date {yyyy-MM-dd HH:mm:ss}
PROV.           : PROVINCE
UWI.      : UNIQUE WELL ID
API.            : API NUMBER
#==================================================================
~Curve
DEPT .m                   : DEPTH
Sonic_despiked .us/ft     : Sonic_despiked
RHOB_despiked .g/cm3      : RHOB_despiked
TWT .ms                   : TWT
~Parameter
#==================================================================
~Ascii
 197.51040000  -999.250000 3.0003230572 33.414093018
 197.66280000  -999.250000 3.0003230572 33.484134674
 197.81520000  -999.250000 3.0003230572 33.554176331
 197.96760000  -999.250000 3.0003230572 33.624214172
 198.12000000  -999.250000 3.0003230572 33.694255829
 198.27240000  -999.250000 3.0003230572 33.764297485
 198.42480000  -999.250000 3.0003230572 33.834339142
 198.57720000  -999.250000 3.0003230572 33.904380798
 198.72960000  -999.250000 3.0003230572 33.974422455
 198.88200000  -999.250000 3.0003230572 34.044460297
 199.03440000  -999.250000 3.0003230572 34.114501953
 199.18680000  -999.250000 3.0003230572 34.184543610
 199.33920000  -999.250000 3.0003230572 34.254585266
 199.49160000  -999.250000 3.0003230572 34.324626923
 199.64400000  -999.250000 3.0003230572 34.394664764
 199.79640000  -999.250000 3.0003230572 34.464706421
 199.94880000  -999.250000 3.0003230572 34.534748077
 200.10120000  -999.250000 3.0003230572 34.604789734
 200.25360000  -999.250000 3.0003230572 34.674831390
 200.40600000  -999.250000 3.0003230572 34.744873047
 200.55840000  -999.250000 3.0003230572 34.814910889
 200.71080000  -999.250000 3.0003230572 34.884952545
 200.86320000  -999.250000 3.0003230572 34.954994202
 201.01560000  -999.250000 3.0003230572 35.025035858
 201.16800000  -999.250000 3.0003230572 35.095077515
 201.32040000  -999.250000 3.0003230572 35.165115356
 201.47280000  -999.250000 3.0003230572 35.235157013
 201.62520000  -999.250000 3.0003230572 35.305198669
 201.77760000  -999.250000 3.0003230572 35.375240326
 201.93000000  -999.250000 3.0003230572 35.445281982
 202.08240000  -999.250000 3.0003230572 35.515323639
 202.23480000  -999.250000 3.0003230572 35.585361481
 202.38720000  -999.250000 3.0003230572 35.655403137
 202.53960000  -999.250000 3.0003230572 35.725444794
 202.69200000  -999.250000 3.0003230572 35.795486450
 202.84440000  -999.250000 3.0003230572 35.865528107
 202.99680000  -999.250000 3.0003230572 35.935569763
 203.14920000  -999.250000 3.0003230572 36.005607605
 203.30160000  -999.250000 3.0003230572 36.075649261
 203.45400000  -999.250000 3.0003230572 36.145690918
 203.60640000  -999.250000 3.0003230572 36.215732574
 203.75880000  -999.250000 3.0003230572 36.285774231
 203.91120000  -999.250000 3.0003230572 36.355812073
 204.06360000  -999.250000 3.0003230572 36.425853729
 204.21600000  -999.250000 3.0003230572 36.495895386
 204.36840000  -999.250000 3.0003230572 36.565937042
 204.52080000  -999.250000 3.0003230572 36.635978699
 204.67320000  -999.250000 3.0003230572 36.706020355
 204.82560000  -999.250000 3.0003230572 36.776058197
 204.97800000  -999.250000 3.0003230572 36.846099854
 205.13040000  -999.250000 3.0003230572 36.916141510
 205.28280000  -999.250000 3.0003230572 36.986183167
 205.43520000  -999.250000 3.0003230572 37.056224823
 205.58760000  -999.250000 3.0003230572 37.126262665
 205.74000000  -999.250000 3.0003230572 37.196304321
 205.89240000  -999.250000 3.0003230572 37.266345978
 206.04480000  -999.250000 3.0003230572 37.336387634
 206.19720000  -999.250000 3.0003230572 37.406429291
 206.34960000  -999.250000 3.0003230572 37.476470947
 206.50200000  -999.250000 3.0003230572 37.546508789
 206.65440000  -999.250000 3.0003230572 37.616550446
 206.80680000  -999.250000 3.0003230572 37.686592102
 206.95920000  -999.250000 3.0003230572 37.756633759
 207.11160000  -999.250000 3.0003230572 37.826675415
 207.26400000  -999.250000 3.0003230572 37.896713257
 207.41640000  -999.250000 3.0003230572 37.966754913
 207.56880000  -999.250000 3.0003230572 38.036796570
 207.72120000  -999.250000 3.0003230572 38.106838226
 207.87360000  -999.250000 3.0003230572 38.176879883
 208.02600000  -999.250000 3.0003230572 38.246921539
 208.17840000  -999.250000 3.0003230572 38.316959381
 208.33080000  -999.250000 3.0003230572 38.387001038
 208.48320000  -999.250000 3.0003230572 38.457042694
 208.63560000  -999.250000 3.0003230572 38.527084351
 208.78800000  -999.250000 3.0003230572 38.597126007
 208.94040000  -999.250000 3.0003230572 38.667163849
 209.09280000  -999.250000 3.0003230572 38.737205505
 209.24520000  -999.250000 3.0003230572 38.807247162
 209.39760000  -999.250000 3.0003230572 38.877288818
 209.55000000  -999.250000 3.0003230572 38.947330475
 209.70240000  -999.250000 3.0003230572 39.017372131
 209.85480000  -999.250000 3.0003230572 39.087409973
 210.00720000  -999.250000 3.0003230572 39.157451630
 210.15960000  -999.250000 3.0003230572 39.227493286
 210.31200000  -999.250000 3.0003230572 39.297534943
 210.46440000  -999.250000 3.0003230572 39.367576599
 210.61680000  -999.250000 3.0003230572 39.437618256
 210.76920000  -999.250000 3.0003230572 39.507656097
 210.92160000  -999.250000 3.0003230572 39.577697754
 211.07400000  -999.250000 3.0003230572 39.647739410
 211.22640000  -999.250000 3.0003230572 39.717781067
 211.37880000  -999.250000 3.0003230572 39.787822723
 211.53120000  -999.250000 3.0003230572 39.857860565
 211.68360000  -999.250000 3.0003230572 39.927902222
 211.83600000  -999.250000 3.0003230572 39.997943878
 211.98840000  -999.250000 3.0003230572 40.067985535
 212.14080000  -999.250000 3.0003230572 40.138027191
 212.29320000  -999.250000 3.0003230572 40.208068848
 212.44560000  -999.250000 3.0003230572 40.278106689
 212.59800000  -999.250000 3.0003230572 40.348148346
 212.75040000  -999.250000 3.0003230572 40.418190002
 212.90280000  -999.250000 3.0003230572 40.488231659
 213.05520000  -999.250000 3.0003230572 40.558273315
 213.20760000  -999.250000 3.0003230572 40.628311157
 213.36000000  -999.250000 3.0003230572 40.698352814
 213.51240000  -999.250000 3.0003230572 40.768394470
 213.66480000  -999.250000 3.0003230572 40.838436127
 213.81720000  -999.250000 3.0003230572 40.908477783
 213.96960000  -999.250000 3.0169250965 40.978519440
 214.12200000  -999.250000 3.0331101418 41.048557281
 214.27440000  -999.250000 3.0432100296 41.118598938
 214.42680000  -999.250000 3.0486087799 41.188640594
 214.57920000  -999.250000 3.0488879681 41.258682251
 214.73160000  -999.250000 3.0424661636 41.328723907
 214.88400000  -999.250000 3.0361850262 41.398761749
 215.03640000  -999.250000 3.0312790871 41.468803406
 215.18880000  -999.250000 3.0297601223 41.538845062
 215.34120000  -999.250000 3.0272450447 41.608886719
 215.49360000  -999.250000 3.0287389755 41.678928375
 215.64600000  -999.250000 3.0359199047 41.748970032
 215.79840000  -999.250000 3.0498731136 41.819007874
 215.95080000  -999.250000 3.0667982101 41.889049530
 216.10320000  -999.250000 3.0671269894 41.959091187
 216.25560000  -999.250000 3.0674560070 42.029132843
 216.40800000  -999.250000 3.0677847862 42.099174500
 216.56040000  -999.250000 3.0681135654 42.169212341
 216.71280000  -999.250000 3.0684425831 42.239253998
 216.86520000  -999.250000 3.0687713623 42.309295654
 217.01760000  -999.250000 3.0691001415 42.379337311
 217.17000000  -999.250000 3.0694291592 42.449378967
 217.32240000  -999.250000 3.0697579384 42.519420624
 217.47480000  -999.250000 3.0584671497 42.589458466
 217.62720000  -999.250000 3.0565860271 42.659500122
 217.77960000  -999.250000 3.0558788776 42.729541779
 217.93200000  -999.250000 3.0584719181 42.799583435
 218.08440000  -999.250000 3.0636260509 42.869625092
 218.23680000  -999.250000 3.0658798218 42.939662933
 218.38920000  -999.250000 3.0581769943 43.009704590
 218.54160000  -999.250000 3.0450589657 43.079746246
 218.69400000  -999.250000 3.0301949978 43.149787903
 218.84640000  -999.250000 3.0308248997 43.219829559
 218.99880000  -999.250000 3.0314550400 43.289871216
 219.15120000  -999.250000 3.0320849419 43.359909058
 219.30360000  -999.250000 3.0377628803 43.429950714
 219.45600000  -999.250000 3.0395171642 43.499992371
 219.60840000  -999.250000 3.0370190144 43.570034027
 219.76080000  -999.250000 3.0390820503 43.640075684
 219.91320000  -999.250000 3.0447251797 43.710117340
 220.06560000  -999.250000 3.0549318790 43.780155182
 220.21800000  -999.250000 3.0595510006 43.850196838
 220.37040000  -999.250000 3.0576632023 43.920238495
