# LAS format log file from PETREL
# Project units are specified as depth units
#==================================================================
~Version information
VERS.   2.0:
WRAP.   NO:
#==================================================================
~Well
STRT .m      197.51040000 :
STOP .m      951.89040000 :
STEP .m     0.15240000 :
NULL .        -999.250000 :
COMP.           : COMPANY
WELL.  P-135   : WELL
FLD.            : FIELD
LOC.            : LOCATION
SRVC.           : SERVICE COMPANY
DATE.  2014-09-16 16:30:35   : Log Export Date {yyyy-MM-dd HH:mm:ss}
PROV.           : PROVINCE
UWI.      : UNIQUE WELL ID
API.            : API NUMBER
#==================================================================
~Curve
DEPT .m                   : DEPTH
Sonic_despiked .us/ft     : Sonic_despiked
RHOB_despiked .g/cm3      : RHOB_despiked
TWT .ms                   : TWT
~Parameter
#==================================================================
~Ascii
# ...
 933.90720000 60.971126556 2.6429400444  -999.250000
 934.05960000 61.033489227 2.6429400444  -999.250000
 934.21200000 61.095851898 2.6429400444  -999.250000
 934.36440000 61.158210754 2.6429400444  -999.250000
 934.51680000 61.220573425 2.6429400444  -999.250000
 934.66920000 61.282936096 2.6429400444  -999.250000
 934.82160000 61.345298767 2.6429400444  -999.250000
 934.97400000 61.407661438 2.6429400444  -999.250000
 935.12640000 61.470024109 2.6429400444  -999.250000
 935.27880000 61.532382965 2.6429400444  -999.250000
 935.43120000 61.552036285 2.6429400444  -999.250000
 935.58360000 61.571689606 2.6429400444  -999.250000
 935.73600000 61.591346741 2.6429400444  -999.250000
 935.88840000 61.611000061 2.6429400444  -999.250000
 936.04080000 61.630653381 2.6429400444  -999.250000
 936.19320000 61.623283386 2.6429400444  -999.250000
 936.34560000 61.638431549 2.6429400444  -999.250000
 936.49800000 61.653583527 2.6429400444  -999.250000
 936.65040000 61.661228180 2.6429400444  -999.250000
 936.80280000 61.668872833 2.6429400444  -999.250000
 936.95520000 61.650646210 2.6429400444  -999.250000
 937.10760000 61.630496979 2.6429400444  -999.250000
 937.26000000 61.637065887 2.6429400444  -999.250000
 937.41240000 61.643634796 2.6429400444  -999.250000
 937.56480000 61.651378632 2.6429400444  -999.250000
 937.71720000 61.661437988 2.6429400444  -999.250000
 937.86960000 61.671493530 2.6429400444  -999.250000
 938.02200000 61.659606934 2.6429400444  -999.250000
 938.17440000 61.676036835 2.6429400444  -999.250000
 938.32680000 61.736652374 2.6429400444  -999.250000
 938.47920000 61.797271729 2.6429400444  -999.250000
 938.63160000 61.779483795 2.6429400444  -999.250000
 938.78400000 61.761692047 2.6429400444  -999.250000
 938.93640000 61.743904114 2.6429400444  -999.250000
 939.08880000 61.757480621 2.6429400444  -999.250000
 939.24120000 61.771053314 2.6429400444  -999.250000
 939.39360000 61.784626007 2.6429400444  -999.250000
 939.54600000 61.798202515 2.6429400444  -999.250000
 939.69840000 61.811775208 2.6429400444  -999.250000
 939.85080000 61.825347900 2.6429400444  -999.250000
 940.00320000 61.838920593 2.6429400444  -999.250000
 940.15560000 61.852497101 2.6429400444  -999.250000
 940.30800000 61.866069794 2.6429400444  -999.250000
 940.46040000 61.879642487 2.6429400444  -999.250000
 940.61280000 61.893218994 2.6429400444  -999.250000
 940.76520000 61.906791687 2.6429400444  -999.250000
 940.91760000 61.909648895 2.6429400444  -999.250000
 941.07000000 61.912506104 2.6429400444  -999.250000
 941.22240000 61.915363312 2.6429400444  -999.250000
 941.37480000 61.918220520 2.6429400444  -999.250000
 941.52720000 61.921081543 2.6429400444  -999.250000
 941.67960000 61.923938751 2.6429400444  -999.250000
 941.83200000 61.926795959 2.6429400444  -999.250000
 941.98440000 61.929653168 2.6429400444  -999.250000
 942.13680000 61.932510376 2.6429400444  -999.250000
 942.28920000 61.935367584 2.6429400444  -999.250000
 942.44160000 61.938224792 2.6429400444  -999.250000
 942.59400000 61.941082001 2.6429400444  -999.250000
 942.74640000 61.943939209 2.6429400444  -999.250000
 942.89880000 61.946796417 2.6429400444  -999.250000
 943.05120000 61.949657440 2.6429400444  -999.250000
 943.20360000 61.952514648 2.6429400444  -999.250000
 943.35600000 61.955371857 2.6429400444  -999.250000
 943.50840000 61.958229065 2.6429400444  -999.250000
 943.66080000 61.961086273 2.6429400444  -999.250000
 943.81320000 61.961086273 2.6429400444  -999.250000
 943.96560000 61.961086273 2.6429400444  -999.250000
 944.11800000 61.961086273 2.6429400444  -999.250000
 944.27040000 61.961086273 2.6429400444  -999.250000
 944.42280000 61.961086273 2.6429400444  -999.250000
 944.57520000 61.961086273 2.6429400444  -999.250000
 944.72760000 61.961086273 2.6429400444  -999.250000
 944.88000000 61.961086273 2.6429400444  -999.250000
 945.03240000 61.961086273 2.6429400444  -999.250000
 945.18480000 61.961086273 2.6429400444  -999.250000
 945.33720000 61.961086273 2.6429400444  -999.250000
 945.48960000 61.961086273 2.6429400444  -999.250000
 945.64200000 61.961086273 2.6429400444  -999.250000
 945.79440000 61.961086273 2.6429400444  -999.250000
 945.94680000 61.961086273 2.6429400444  -999.250000
 946.09920000 61.961086273 2.6429400444  -999.250000
 946.25160000 61.961086273 2.6429400444  -999.250000
 946.40400000 61.961086273 2.6429400444  -999.250000
 946.55640000 61.961086273 2.6429400444  -999.250000
 946.70880000 61.961086273 2.6429400444  -999.250000
 946.86120000 61.961086273 2.6429400444  -999.250000
 947.01360000 61.961086273 2.6429400444  -999.250000
 947.16600000 61.961086273 2.6429400444  -999.250000
 947.31840000 61.961086273 2.6429400444  -999.250000
 947.47080000 61.961086273 2.6429400444  -999.250000
 947.62320000 61.961086273 2.6429400444  -999.250000
 947.77560000 61.961086273 2.6429400444  -999.250000
 947.92800000 61.961086273 2.6429400444  -999.250000
 948.08040000 61.961086273 2.6429400444  -999.250000
 948.23280000 61.961086273 2.6429400444  -999.250000
 948.38520000 61.961086273 2.6429400444  -999.250000
 948.53760000 61.961086273 2.6429400444  -999.250000
 948.69000000 61.961086273 2.6429400444  -999.250000
 948.84240000 61.961086273 2.6429400444  -999.250000
 948.99480000 61.961086273 2.6429400444  -999.250000
 949.14720000 61.961086273 2.6429400444  -999.250000
 949.29960000 61.961086273 2.6429400444  -999.250000
 949.45200000 61.961086273 2.6429400444  -999.250000
 949.60440000 61.961086273 2.6429400444  -999.250000
 949.75680000 61.961086273 2.6429400444  -999.250000
 949.90920000 61.961086273 2.6429400444  -999.250000
 950.06160000 61.961086273 2.6429400444  -999.250000
 950.21400000 61.961086273 2.6429400444  -999.250000
 950.36640000 61.961086273 2.6429400444  -999.250000
 950.51880000 61.961086273 2.6429400444  -999.250000
 950.67120000 61.961086273 2.6429400444  -999.250000
 950.82360000 61.961086273 2.6429400444  -999.250000
 950.97600000 61.961086273 2.6429400444  -999.250000
 951.12840000 61.961086273 2.6429400444  -999.250000
 951.28080000 61.961086273 2.6429400444  -999.250000
 951.43320000 61.961086273 2.6429400444  -999.250000
 951.58560000 61.961086273 2.6429400444  -999.250000
 951.73800000 61.961086273 2.6429400444  -999.250000
 951.89040000 61.961086273 2.6429400444  -999.250000
