# LAS format log file from PETREL
# Project units are specified as depth units
#==================================================================
~Version information
VERS.   2.0:
WRAP.   YES:
#==================================================================
~Well
STRT .m      197.51040000 :
STOP .m      951.89040000 :
STEP .m     0.15240000 :
NULL .        -999.250000 :
COMP            .                Eastrock Resources LTD.   :COMPANY
WELL            .                Eastrock Lauren #1        :WELL NAME
FLD             .                        Lauren            :FIELD NAME
RIGN            .                    Foragaz #3            :Rig Name
RIGTYP          .                          Land            :Rig Type
SON             .                    BX61-00001            :Service Order Number
SRVC            .                  Schlumberger            :SERVICE COMPANY
DATE            .                    12/30/2011            :LOG DATE(Composite Date for Composite LAP) (MM/DD/YYYY)
CLAB            .                     Province:            :County Label
CNTY            .                   Nova Scotia            :COUNTY
SLAB            .                                          :State/Province Label
STAT            .                                          :STATE or PROVINCE
PROV            .                                          :STATE or PROVINCE
CTRY            .                        Canada            :COUNTRY
CONT_REGION     .                    N. America            :Continent Region
SECT            .                       -999.25            :Section
TOWN            .                    Springhill            :Township
RANG            .                       -999.25            :Range
API             .                        435655            :API NUMBER
UWI             .                       -999.25            :UNIQUE WELL ID
LUL             .                          CANS            :Logging Unit Location
LUN             .                          2316            :Logging Unit Number
LOC             .                    Springhill            :FIELD LOCATION
FL1             .                                          :Field Location Line 1
FL2             .                       -999.25            :Field Location Line 2
LATI            .deg             45∞ 39' 26.518" N         :LATITUDE
LONG            .deg             64∞ 0' 51.347" W          :LONGITUDE
PDAT            .                            GL            :Local Permanent Datum
LMF             .                            KB            :Logging Measured From
APD             .m                      4.00000            :Elevation of Depth Reference (LMF) Above Permanent Datum
EPD             .m                    119.00000            :Elevation of Permanent Datum (PDAT) above Mean Sea Level
EKB             .m                    123.00000            :Elevation of Kelly Bushing Above Permanent Datum
EDF             .m                    122.70000            :Elevation of Drill Floor Above Permanent Datum
EGL             .m                    119.00000            :Elevation of Ground Level Above Permanent Datum
ECF             .m                      -999.25            :Elevation of Casing Flange above Permanent Datum
#--------------------------------------------------
#==================================================================
~Curve
DEPT .m                   : DEPTH
CALI .in                  : Caliper
DT .us/ft                 : Delta-t P-sonic
DTS .us/ft                : Delta-t Shear-sonic
DPHI_SAN .m3/m3           : Density Porosity (Sandstone)
DPHI_LIM .m3/m3           : Density Porosity (Limestone)
DPHI_DOL .m3/m3           : Density Porosity (Dolomite)
NPHI_SAN .m3/m3           : Enhanced Thermal Neutron Porosity (Sandstone)
NPHI_LIM .m3/m3           : Enhanced Thermal Neutron Porosity (Limestone)
NPHI_DOL .m3/m3           : Enhanced Thermal Neutron Porosity (Dolomite)
AMF .ohm.m                : Array Induction Mud Resistivity Fully Calibrated
AF90 .ohm.m               : Array Induction Four Foot Resistivity A90
AF10 .ohm.m               : Array Induction Four Foot Resistivity A10
AF20 .ohm.m               : Array Induction Four Foot Resistivity A20
AF60 .ohm.m               : Array Induction Four Foot Resistivity A60
AF30 .ohm.m               : Array Induction Four Foot Resistivity A30
RXOZ .ohm.m               : Invaded Formation Resistivity filtered at 18 inches
GR .gAPI                  : Gamma Ray
POTA .gAPI                : POTA (percent)
THOR .gAPI                : THOR (percent)
URAN .gAPI                : URAN (percent)
SP .mV                    : SP
RHOB .g/cm3               : RHOB
~Parameter
#==================================================================
~Ascii
# ...
 403.25040000
 6.3829722404 74.296157837 131.40850830 0.1344600022 0.1648299992 0.2366700023
 0.1880899966 0.1469099969 0.0720599964 1.4974399805 7.1535801888 18.604660034
 11.807740211 7.4261598587 9.3345298767 69.907829285 138.28669739 3.4076702595
 15.044440269 3.6180498600 -419.8055115 2.4281358719
 403.40280000
 6.3563661575 73.839355469 128.80162048 0.1419699937 0.1720799953 0.2359199971
 0.1821299940 0.1410000026 0.0672900006 1.4983400106 7.3195400238 18.536949158
 12.016110420 7.5896000862 9.5364398956 63.247230530 137.20050049 3.4011800289
 15.427680016 3.3494200706 -417.1470947 2.4157409668
 403.55520000
 6.3221611977 72.274787903 128.12864685 0.1370400041 0.1673199981 0.2274799943
 0.1694100052 0.1283800006 0.0576899983 1.4992400408 7.4791097641 18.417289734
 12.238789558 7.7804799080 9.7477502823 77.782707214 134.47300720 3.2511498928
 15.331039429 3.2581999302 -414.2006836 2.4238860607
 403.70760000
 6.3297600746 70.397827148 127.06331635 0.1181000024 0.1490399987 0.2109500021
 0.1571200043 0.1161900014 0.0491500013 1.5006799698 7.6584801674 18.265840530
 12.440369606 7.9519600868 9.9393796921 109.96410370 141.37899780 3.4022099972
 16.339370728 3.3425798416 -411.7720947 2.4551429749
 403.86000000
 6.2765474319 68.047966003 123.50752258 0.0957299992 0.1274600029 0.1810099930
 0.1494199932 0.1085499972 0.0441499986 1.5021100044 7.8557200432 18.050489426
 12.599539757 8.1501102448 10.138449669 139.78869629 145.49670410 3.4518301487
 17.089231491 3.4195199013 -409.8848877 2.4920439720
 404.01240000
 6.2613463402 66.569969177 121.07704163 0.0894000009 0.1213599965 0.1754200011
 0.1435700059 0.1027500033 0.0405099988 1.5001900196 8.0579595566 17.766170502
 12.697620392 8.4132604599 10.341070175 169.24769592 150.74070740 3.4967401028
 18.162429810 3.6482100487 -409.5242920 2.5024828911
 404.16480000
 6.2537441254 67.647804260 120.73088837 0.0979800001 0.1296299994 0.1782400012
 0.1532900035 0.1124000028 0.0466299988 1.4982600212 8.2560195923 17.325260162
 12.700169563 8.6769399643 10.496689796 100.96920013 148.75379944 3.3954601288
 17.360269547 3.7908201218 -408.6979065 2.4883401394
 404.31720000
 6.2917518616 68.963256836 122.62115479 0.1145099998 0.1455799937 0.2115399987
 0.1667499989 0.1257500052 0.0557899997 1.4958200455 8.3882102966 16.546270370
 12.508029938 8.8600997925 10.512860298 87.174842834 145.86410522 3.2003397942
 17.695768356 3.7462601662 -404.5555115 2.4610629082
 404.46960000
 6.3145589828 69.980613708 124.46690369 0.1276399940 0.1582500041 0.2334199995
 0.1872600019 0.1460900009 0.0714000016 1.4933700562 8.4000396729 15.408390045
 11.960289955 8.8326997757 10.248640060 64.334709167 143.34620667 3.0875699520
 17.760030746 3.7365601063 -397.3714905 2.4393889904
 404.62200000
 6.3525667191 70.804428101 129.34632874 0.1237599999 0.1544999927 0.2463999987
 0.1946299970 0.1534000039 0.0775199980 1.4902600050 8.2856302261 13.981550217
 11.208939552 8.6443595886 9.8001298904 38.084770203 146.35139465 3.0946199894
 18.453180313 3.6860699654 -396.2828979 2.4458019733
 404.77440000
 6.3525667191 71.642936707 128.94709778 0.1001299992 0.1317099929 0.1804099977
 0.2018900067 0.1606100053 0.0842600018 1.4871599674 8.0760002136 12.587770462
 10.422089577 8.3915796280 9.3056201935 26.145019531 153.82479858 3.1282000542
 19.475990295 4.2233200073 -400.6007080 2.4847810268
 404.92680000
 6.3829722404 72.482475281 130.26051331 0.0765900016 0.1089899987 0.1406600028
 0.1986899972 0.1574299932 0.0811299980 1.4878000021 7.9397897720 11.691989899
 9.9010095596 8.1757297516 8.9176301956 20.417299271 159.43429565 3.2853100300
 21.278680801 4.0340600014 -401.8923950 2.5236260891
 405.07920000
 6.3753705025 73.044891357 131.57392883 0.0720399991 0.1045999974 0.1656299978
 0.2005400062 0.1592700034 0.0829399973 1.4884400368 7.8053898811 10.867469788
 9.3810701370 7.9924697876 8.5062599182 24.981700897 158.98739624 3.2087900639
 21.332359314 4.1973700523 -399.3750000 2.5311410427
 405.23160000
 6.3848743439 72.799163818 131.99885559 0.0862200037 0.1182800010 0.1963700056
 0.2011899948 0.1599099934 0.0835800022 1.4865100384 7.7043600082 10.273369789
 8.9932804108 7.7731699944 8.1727800369 30.406230927 154.55059814 3.1538200378
 20.940059662 3.9114601612 -399.3750000 2.5077390671
 405.38400000
 6.3905749321 73.014350891 132.07362366 0.0975600034 0.1292299926 0.1999299973
 0.2071100026 0.1657900065 0.0894000009 1.4845900536 7.6117200851 9.8815603256
 8.7228603363 7.5812602043 7.9157600403 27.526550293 153.89460754 3.1559200287
 21.235450745 3.6863801479 -405.5450745 2.4890248775
 405.53640000
 6.4057798386 73.840911865 133.09436035 0.0986000001 0.1302299947 0.1729400009
 0.2076400071 0.1662999988 0.0899100006 1.4844000340 7.5219597816 9.6514301300
 8.5489597321 7.4096298218 7.7243700027 20.750419617 152.22560120 3.1956598759
 20.935920715 3.4863100052 -410.4270935 2.4873020649
 405.68880000
 6.4057798386 74.699035645 133.72146606 0.1058000028 0.1371800005 0.2002999932
 0.2114499956 0.1700900048 0.0936900005 1.4842100143 7.4802799225 9.5796203613
 8.4921302795 7.2771601677 7.6128602028 17.635820389 150.26280212 3.1719498634
 21.191650391 3.1804800034 -412.7188110 2.4754309654
 405.84120000
 6.3905749321 74.697975159 133.82508850 0.1133700013 0.1444800049 0.2113099992
 0.2094700038 0.1681299955 0.0917299986 1.4874099493 7.5321497917 9.6995296478
 8.5865402222 7.2254300117 7.6156401634 20.329109192 143.23719788 3.1020300388
 20.524000168 2.7431099415 -413.1388855 2.4629340172
 405.99360000
 6.3905749321 74.065605164 132.44279480 0.1231099963 0.1538800001 0.2253600061
 0.2042600065 0.1629499942 0.0865800008 1.4906100035 7.6643900871 10.121629715
 8.8671703339 7.2811899185 7.7588100433 21.777259827 141.20410156 3.1399898529
 19.815250397 2.6390001774 -414.2985840 2.4468729496
 406.14600000
 6.3677678108 73.960357666 131.01521301 0.1188400015 0.1497599930 0.2127899975
 0.1906400025 0.1494400054 0.0741600022 1.4927200079 7.8275399208 10.739649773
 9.3228902817 7.4268298149 8.0344495773 31.638010025 139.99330139 3.1013500690
 19.971630096 2.5406701565 -415.5417175 2.4539070129
 406.29840000
 6.3677678108 74.146560669 130.42874146 0.1141000018 0.1451900005 0.2026800066
 0.1799100041 0.1387899965 0.0655599982 1.4948400259 7.9852499962 11.465410233
 9.7793102264 7.5806899071 8.3082103729 41.379440308 141.82179260 3.2238402367
 19.923170090 2.6255400181 -416.5242920 2.4617280960
 406.45080000
 6.3753705025 73.346588135 130.59814453 0.1128500029 0.1439799964 0.2157000005
 0.1866900027 0.1455300003 0.0709299967 1.4961999655 8.0823001862 12.206179619
 10.206290245 7.6927800179 8.5668296814 53.162269592 141.98150635 3.3114898205
 19.672929764 2.5269000530 -416.7221985 2.4637899399
 406.60320000
 6.3753705025 73.173370361 129.75311279 0.1159100011 0.1469299942 0.2169300020
 0.1933600008 0.1521400064 0.0764499977 1.4975700378 8.1253404617 12.938599586
 10.514410019 7.7470498085 8.7490301132 50.567100525 139.57769775 3.2958197594
 18.538831711 2.6483600140 -416.0416870 2.4587490559
 406.75560000
 6.3525667191 72.697204590 129.84321594 0.1167400032 0.1477299929 0.2071200013
 0.1939699948 0.1527500004 0.0769599974 1.4984799623 8.1490297318 13.568779945
 10.701809883 7.7657098770 8.8577699661 62.231628418 138.11959839 3.2722001076
 17.766208649 2.7815599442 -414.8923950 2.4573750496
 406.90800000
 6.3145589828 72.349914551 129.64993286 0.1092699990 0.1405200064 0.1939599961
 0.1868499964 0.1456799954 0.0710600019 1.4993900061 8.1312599182 13.912240028
 10.773159981 7.7548699379 8.8930597305 84.494949341 134.30630493 3.1682300568
 17.423238754 2.7913699150 -412.4757080 2.4697108269
 407.06040000
 6.2993545532 72.019302368 129.58776855 0.1072300002 0.1385599971 0.2025099993
 0.1794700027 0.1383700073 0.0652199984 1.4974600077 7.9909200668 14.006810188
 10.660369873 7.7027201653 8.8221397400 92.550079346 135.68730164 3.1837601662
 17.573808670 2.9627499580 -408.6284790 2.4730648994
 407.21280000
 6.3373622894 71.772994995 128.88456726 0.1078599989 0.1391600072 0.2035000026
 0.1767500043 0.1356599927 0.0631299987 1.4955199957 7.8198599815 13.819680214
 10.425399780 7.6098799706 8.6885299683 83.269203186 139.51289368 3.2771999836
 17.789251328 3.2302501202 -405.6839905 2.4720320702
