# LAS format log file from PETREL
# Project units are specified as depth units
#==================================================================
~Version information
VERS.   2.0:
WRAP.   YES:
#==================================================================
~Well
STRT .m      197.51040000 :
STOP .m      951.89040000 :
STEP .m     0.15240000 :
NULL .        -999.250000 :
COMP            .                Eastrock Resources LTD.   :COMPANY
WELL            .                Eastrock Lauren #1        :WELL NAME
FLD             .                        Lauren            :FIELD NAME
RIGN            .                    Foragaz #3            :Rig Name
RIGTYP          .                          Land            :Rig Type
SON             .                    BX61-00001            :Service Order Number
SRVC            .                  Schlumberger            :SERVICE COMPANY
DATE            .                    12/30/2011            :LOG DATE(Composite Date for Composite LAP) (MM/DD/YYYY)
CLAB            .                     Province:            :County Label
CNTY            .                   Nova Scotia            :COUNTY
SLAB            .                                          :State/Province Label
STAT            .                                          :STATE or PROVINCE
PROV            .                                          :STATE or PROVINCE
CTRY            .                        Canada            :COUNTRY
CONT_REGION     .                    N. America            :Continent Region
SECT            .                       -999.25            :Section
TOWN            .                    Springhill            :Township
RANG            .                       -999.25            :Range
API             .                        435655            :API NUMBER
UWI             .                       -999.25            :UNIQUE WELL ID
LUL             .                          CANS            :Logging Unit Location
LUN             .                          2316            :Logging Unit Number
LOC             .                    Springhill            :FIELD LOCATION
FL1             .                                          :Field Location Line 1
FL2             .                       -999.25            :Field Location Line 2
LATI            .deg             45∞ 39' 26.518" N         :LATITUDE
LONG            .deg             64∞ 0' 51.347" W          :LONGITUDE
PDAT            .                            GL            :Local Permanent Datum
LMF             .                            KB            :Logging Measured From
APD             .m                      4.00000            :Elevation of Depth Reference (LMF) Above Permanent Datum
EPD             .m                    119.00000            :Elevation of Permanent Datum (PDAT) above Mean Sea Level
EKB             .m                    123.00000            :Elevation of Kelly Bushing Above Permanent Datum
EDF             .m                    122.70000            :Elevation of Drill Floor Above Permanent Datum
EGL             .m                    119.00000            :Elevation of Ground Level Above Permanent Datum
ECF             .m                      -999.25            :Elevation of Casing Flange above Permanent Datum
#--------------------------------------------------
#==================================================================
~Curve
DEPT .m                   : DEPTH
CALI .in                  : Caliper
DT .us/ft                 : Delta-t P-sonic
DTS .us/ft                : Delta-t Shear-sonic
DPHI_SAN .m3/m3           : Density Porosity (Sandstone)
DPHI_LIM .m3/m3           : Density Porosity (Limestone)
DPHI_DOL .m3/m3           : Density Porosity (Dolomite)
NPHI_SAN .m3/m3           : Enhanced Thermal Neutron Porosity (Sandstone)
NPHI_LIM .m3/m3           : Enhanced Thermal Neutron Porosity (Limestone)
NPHI_DOL .m3/m3           : Enhanced Thermal Neutron Porosity (Dolomite)
AMF .ohm.m                : Array Induction Mud Resistivity Fully Calibrated
AF90 .ohm.m               : Array Induction Four Foot Resistivity A90
AF10 .ohm.m               : Array Induction Four Foot Resistivity A10
AF20 .ohm.m               : Array Induction Four Foot Resistivity A20
AF60 .ohm.m               : Array Induction Four Foot Resistivity A60
AF30 .ohm.m               : Array Induction Four Foot Resistivity A30
RXOZ .ohm.m               : Invaded Formation Resistivity filtered at 18 inches
GR .gAPI                  : Gamma Ray
POTA .gAPI                : POTA (percent)
THOR .gAPI                : THOR (percent)
URAN .gAPI                : URAN (percent)
SP .mV                    : SP
RHOB .g/cm3               : RHOB
~Parameter
#==================================================================
~Ascii
# ...
 925.83000000
 6.3136062622 59.373088837 105.59037018 0.0041999999 0.0391400009 0.1115500033
 0.1431600004 0.1023399979 0.0402700007 0.6836100221 36.330249786 31.689510345
 38.959201813 34.785461426 36.585628510 38.509738922  -999.250000  -999.250000
  -999.250000  -999.250000 -457.6542053 2.6430709362
 925.98240000
 6.3123860359 59.670665741 105.47091675 0.0038800000 0.0388399996 0.1117800027
 0.1432300061 0.1024100035 0.0403000005 0.6838099957 35.177719116 29.994329453
 36.582710266 33.692890167 34.573150635 37.655620575  -999.250000  -999.250000
  -999.250000  -999.250000 -458.4166870 2.6435911655
 926.13480000
 6.3026103973 60.036365509 106.05976105 0.0020800000 0.0370899998 0.1057299972
 0.1419100016 0.1010999978 0.0395100005 0.6837900281 33.483299255 28.498210907
 34.534988403 31.881849289 32.567298889 37.455818176  -999.250000  -999.250000
  -999.250000  -999.250000 -459.4500122 2.6465699673
 926.28720000
 6.3026103973 60.515693665 106.88906097 0.0000500000 0.0351300016 0.1082900017
 0.1410299987 0.1002300009 0.0389799997 0.6837700009 32.122341156 27.520620346
 33.263099670 30.448709488 31.259439468 37.371051788  -999.250000  -999.250000
  -999.250000  -999.250000 -459.8833008 2.6499240398
 926.43960000
 6.2960982323 61.213317871 108.27855682 -0.004690000 0.0305599999 0.0995400026
 0.1414899975 0.1006800011 0.0392500013 0.6849399805 31.334819794 27.173509598
 32.840709686 29.600830078 30.673280716 37.307880402  -999.250000  -999.250000
  -999.250000  -999.250000 -460.0166931 2.6577420235
 926.59200000
 6.2947912216 61.485656738 109.03704834 -0.006910000 0.0284199994 0.1027500033
  -999.250000  -999.250000  -999.250000 0.6861000061 31.236749649 27.394210815
 33.367000580 29.770650864 30.901870728 37.246978760  -999.250000  -999.250000
  -999.250000  -999.250000 -458.5042114 2.6613998413
 926.74440000
 6.2879528999 61.442466736 107.49491882 -0.007310000 0.0280300006 0.1029699966
  -999.250000  -999.250000  -999.250000 0.6901900172 31.719009399 28.070579529
 34.560180664 30.352750778 31.663320541 37.185138702  -999.250000  -999.250000
  -999.250000  -999.250000 -457.7544861 2.6620681286
 926.89680000
 6.2863230705 61.301067352 108.80332947 -0.003720000 0.0315000005 0.1050700024
  -999.250000  -999.250000  -999.250000 0.6942800283 32.465919495 29.204120636
 36.133510590 31.203729630 32.712608337 37.135349274  -999.250000  -999.250000
  -999.250000  -999.250000 -457.4042053 2.6561379433
 927.04920000
 6.2863230705 61.113525391 108.21720123 -0.001110000 0.0340199992 0.1053799987
  -999.250000  -999.250000  -999.250000 0.6954100132 33.230758667 30.366939545
 37.553138733 32.082778931 33.745769501 37.098220825  -999.250000  -999.250000
  -999.250000  -999.250000 -457.6875000 2.6518249512
 927.20160000
 6.2803502083 60.681869507 107.45611572 -0.000430000 0.0346699990 0.1093000025
  -999.250000  -999.250000  -999.250000 0.6965299845 34.016510010 31.669200897
 39.245811462 33.334850311 35.096210480 37.074329376  -999.250000  -999.250000
  -999.250000  -999.250000 -456.7958069 2.6507060528
 927.35400000
 6.2765474319 60.442569733 106.22514343 -0.000230000 0.0348699987 0.1049199998
  -999.250000  -999.250000  -999.250000 0.6963599920 34.510250092 32.916759491
 40.797210693 34.479530334 36.402030945 37.060100555  -999.250000  -999.250000
  -999.250000  -999.250000 -458.2000122 2.6503760815
 927.50640000
 6.2765474319 60.019325256 106.08939362 0.0022799999 0.0372899994 0.1125599965
  -999.250000  -999.250000  -999.250000 0.6961899996 34.889221191 33.805870056
 41.855690002 34.894538879 37.301620483 37.053169250  -999.250000  -999.250000
  -999.250000  -999.250000 -460.2276917 2.6462328434
 927.65880000
 6.2765474319 60.025115967 105.28691101 0.0061800000 0.0410499983 0.1162900031
  -999.250000  -999.250000  -999.250000 0.6959699988 35.213550568 34.315959930
 42.008899689 34.649368286 37.374740601 37.049560547  -999.250000  -999.250000
  -999.250000  -999.250000 -461.6707764 2.6398091316
 927.81120000
 6.2765474319 60.020545959 104.97299957 0.0082500000 0.0430499986 0.1123699993
  -999.250000  -999.250000  -999.250000 0.6957499981 34.995811462 34.484710693
 42.025989532 34.439678192 37.504108429 37.049449921  -999.250000  -999.250000
  -999.250000  -999.250000 -461.5313110 2.6363868713
 927.96360000
 6.2803502083 60.372650146 105.33760071 0.0051000002 0.0400100015 0.1102299988
  -999.250000  -999.250000  -999.250000 0.6965299845 35.071319580 34.748611450
 42.130939484 34.172908783 37.385421753 37.046661377  -999.250000  -999.250000
  -999.250000  -999.250000 -460.5804138 2.6415891647
 928.11600000
 6.2803502083 60.203639984 104.82617188 0.0008400000 0.0359000005 0.1043900028
  -999.250000  -999.250000  -999.250000 0.6973099709 34.821601868 35.197898865
 42.541740417 33.750839233 37.598789215 37.046630859  -999.250000  -999.250000
  -999.250000  -999.250000 -458.0045166 2.6486170292
 928.26840000
 6.2765474319 59.768291473 105.17578125 -0.003500000 0.0317099988 0.1043599993
  -999.250000  -999.250000  -999.250000 0.6980199814 35.162120819 36.419281006
 43.805641174 34.606521606 38.693599701 37.047241211  -999.250000  -999.250000
  -999.250000  -999.250000 -455.8303833 2.6557729244
 928.42080000
 6.2879528999 59.358917236 104.94520569 -0.002140000 0.0330299996 0.1064900011
  -999.250000  -999.250000  -999.250000 0.6987299919 36.168819427 37.627159119
 45.788379669 35.773410797 40.169410706 37.049148560  -999.250000  -999.250000
  -999.250000  -999.250000 -454.4419861 2.6535248756
 928.57320000
 6.2765474319 59.081516266 105.26026917 -0.000600000 0.0345100015 0.1118500009
  -999.250000  -999.250000  -999.250000 0.6991000175 36.684391022 38.695091248
 47.379699707 36.160850525 42.081420898 37.047809601  -999.250000  -999.250000
  -999.250000  -999.250000 -454.0385132 2.6509819031
 928.72560000
 6.2841491699 58.817684174 105.27207184 0.0043899999 0.0393299982 0.1057099998
  -999.250000  -999.250000  -999.250000 0.6994699836 38.072029114 39.322181702
 48.331710815 37.944450378 43.551731110 37.045490265  -999.250000  -999.250000
  -999.250000  -999.250000 -454.4230957 2.6427519321
 928.87800000
 6.2841491699 58.894641876 104.60092926 0.0024999999 0.0375000015 0.1123699993
  -999.250000  -999.250000  -999.250000 0.7005400062 38.733470917 39.164028168
 47.939788818 39.309959412 44.013721466 37.046390533  -999.250000  -999.250000
  -999.250000  -999.250000 -456.4017944 2.6458811760
 929.03040000
 6.2803502083 59.175426483 104.37632751 0.0042800000 0.0392200015 0.1061299965
  -999.250000  -999.250000  -999.250000 0.7016100287 38.123859406 37.540939331
 46.343460083 39.222229004 43.377490997 37.052318573  -999.250000  -999.250000
  -999.250000  -999.250000 -456.8125000 2.6429400444
 929.18280000
 6.2803502083 59.743850708 104.43511963  -999.250000  -999.250000  -999.250000
  -999.250000  -999.250000  -999.250000 0.6974999905 36.579269409 35.224941254
 43.162071228 37.958141327 41.147750854 37.056819916  -999.250000  -999.250000
  -999.250000  -999.250000 -458.8029175  -999.250000
 929.33520000
 6.2803502083 60.138748169 104.99296570  -999.250000  -999.250000  -999.250000
  -999.250000  -999.250000  -999.250000 0.6934000254 34.904739380 33.317321777
 39.550949097 36.404529572 38.554328918 37.056850433  -999.250000  -999.250000
  -999.250000  -999.250000 -460.8125000  -999.250000
 929.48760000
 6.2803502083 60.432968140 105.88486481  -999.250000  -999.250000  -999.250000
  -999.250000  -999.250000  -999.250000 0.6959199905 32.911968231 31.736829758
 36.178050995 34.647109985 35.929851532 37.049270630  -999.250000  -999.250000
  -999.250000  -999.250000 -463.1875000  -999.250000
 929.64000000
 6.2803502083 60.765506744 106.60304260  -999.250000  -999.250000  -999.250000
  -999.250000  -999.250000  -999.250000 0.6984400153 31.594049454 30.602050781
 33.238491058 32.741138458 33.491218567 37.039798737  -999.250000  -999.250000
  -999.250000  -999.250000 -464.8214111  -999.250000
 929.79240000
 6.2803502083 60.914096832 108.00721741  -999.250000  -999.250000  -999.250000
  -999.250000  -999.250000  -999.250000 0.7034500241 30.173429489 29.412879944
 30.373619080 30.856489182 30.864629745 37.092220306  -999.250000  -999.250000
  -999.250000  -999.250000 -465.8462219  -999.250000
