# LAS format log file from PETREL
# Project units are specified as depth units
#==================================================================
~Version information
VERS.   2.0:
WRAP.   YES:
#==================================================================
~Well
STRT .m      197.51040000 :
STOP .m      951.89040000 :
STEP .m     0.15240000 :
NULL .        -999.250000 :
COMP            .                Eastrock Resources LTD.   :COMPANY
WELL            .                Eastrock Lauren #1        :WELL NAME
FLD             .                        Lauren            :FIELD NAME
RIGN            .                    Foragaz #3            :Rig Name
RIGTYP          .                          Land            :Rig Type
SON             .                    BX61-00001            :Service Order Number
SRVC            .                  Schlumberger            :SERVICE COMPANY
DATE            .                    12/30/2011            :LOG DATE(Composite Date for Composite LAP) (MM/DD/YYYY)
CLAB            .                     Province:            :County Label
CNTY            .                   Nova Scotia            :COUNTY
SLAB            .                                          :State/Province Label
STAT            .                                          :STATE or PROVINCE
PROV            .                                          :STATE or PROVINCE
CTRY            .                        Canada            :COUNTRY
CONT_REGION     .                    N. America            :Continent Region
SECT            .                       -999.25            :Section
TOWN            .                    Springhill            :Township
RANG            .                       -999.25            :Range
API             .                        435655            :API NUMBER
UWI             .                       -999.25            :UNIQUE WELL ID
LUL             .                          CANS            :Logging Unit Location
LUN             .                          2316            :Logging Unit Number
LOC             .                    Springhill            :FIELD LOCATION
FL1             .                                          :Field Location Line 1
FL2             .                       -999.25            :Field Location Line 2
LATI            .deg             45∞ 39' 26.518" N         :LATITUDE
LONG            .deg             64∞ 0' 51.347" W          :LONGITUDE
PDAT            .                            GL            :Local Permanent Datum
LMF             .                            KB            :Logging Measured From
APD             .m                      4.00000            :Elevation of Depth Reference (LMF) Above Permanent Datum
EPD             .m                    119.00000            :Elevation of Permanent Datum (PDAT) above Mean Sea Level
EKB             .m                    123.00000            :Elevation of Kelly Bushing Above Permanent Datum
EDF             .m                    122.70000            :Elevation of Drill Floor Above Permanent Datum
EGL             .m                    119.00000            :Elevation of Ground Level Above Permanent Datum
ECF             .m                      -999.25            :Elevation of Casing Flange above Permanent Datum
#--------------------------------------------------
#==================================================================
~Curve
DEPT .m                   : DEPTH
CALI .in                  : Caliper
DT .us/ft                 : Delta-t P-sonic
DTS .us/ft                : Delta-t Shear-sonic
DPHI_SAN .m3/m3           : Density Porosity (Sandstone)
DPHI_LIM .m3/m3           : Density Porosity (Limestone)
DPHI_DOL .m3/m3           : Density Porosity (Dolomite)
NPHI_SAN .m3/m3           : Enhanced Thermal Neutron Porosity (Sandstone)
NPHI_LIM .m3/m3           : Enhanced Thermal Neutron Porosity (Limestone)
NPHI_DOL .m3/m3           : Enhanced Thermal Neutron Porosity (Dolomite)
AMF .ohm.m                : Array Induction Mud Resistivity Fully Calibrated
AF90 .ohm.m               : Array Induction Four Foot Resistivity A90
AF10 .ohm.m               : Array Induction Four Foot Resistivity A10
AF20 .ohm.m               : Array Induction Four Foot Resistivity A20
AF60 .ohm.m               : Array Induction Four Foot Resistivity A60
AF30 .ohm.m               : Array Induction Four Foot Resistivity A30
RXOZ .ohm.m               : Invaded Formation Resistivity filtered at 18 inches
GR .gAPI                  : Gamma Ray
POTA .gAPI                : POTA (percent)
THOR .gAPI                : THOR (percent)
URAN .gAPI                : URAN (percent)
SP .mV                    : SP
RHOB .g/cm3               : RHOB
~Parameter
#==================================================================
~Ascii
# ...
 497.89080000
 6.3677678108 67.819007874 117.30155182 0.0967499986 0.1284399927 0.1965699941
 0.1680700034 0.1270499974 0.0567299984 1.4670599699 9.8328504562 19.294719696
 14.164509773 9.6708803177 11.174449921 100.22250366 131.78410339 3.3350999355
 16.835880280 2.5560901165 -423.4063110 2.4903678894
 498.04320000
 6.3677678108 68.219268799 117.87082672 0.1056900024 0.1370700002 0.2081000060
 0.1702100039 0.1291799992 0.0582699999 1.4676300287 9.6160602570 19.125030518
 13.930339813 9.5351800919 11.033820152 108.54239655 132.54519653 3.4001202583
 17.020059586 2.3873398304 -422.9570007 2.4756078720
 498.19560000
 6.3677678108 67.361839294 118.21665192 0.1086900011 0.1399600059 0.1883600056
 0.1651699990 0.1241699979 0.0546699986 1.4676599503 9.4613704681 18.867149353
 13.685779572 9.4577102661 10.920680046 108.19899750 135.21060181 3.3806998730
 17.084110260 2.6645300388 -422.4707947 2.4706630707
 498.34800000
 6.3677678108 66.987052917 118.27998352 0.1092600003 0.1405099928 0.2027300000
 0.1609600037 0.1199999973 0.0517399982 1.4676899910 9.3853702545 18.639329910
 13.512639999 9.4514198303 10.870789528 134.75619507 136.35110474 3.5089399815
 17.510931015 2.3858098984 -422.6796875 2.4697241783
 498.50040000
 6.3525667191 66.336883545 118.01754761 0.1043300033 0.1357599944 0.1941300035
 0.1638900042 0.1229100004 0.0537699983 1.4676799774 9.3856000900 18.548139572
 13.425889969 9.5087404251 10.887020111 132.69230652 139.85989380 3.6033601761
 18.148370743 2.2698500156 -423.2031250 2.4778559208
 498.65280000
 6.4057798386 65.876907349 117.69461823 0.1000400037 0.1316100061 0.1947000027
 0.1696200073 0.1285900027 0.0578400008 1.4676799774 9.4637298584 18.659090042
 13.473690033 9.6588296890 10.996930122 137.45629883 139.71310425 3.5250802040
 18.505010605 2.2298500538 -423.8359070 2.4849388599
 498.80520000
 6.4133782387 66.040588379 117.93172455 0.0936999992 0.1254999936 0.1850299984
 0.1707099974 0.1296699941 0.0586399995 1.4673800468 9.6966495514 19.050020218
 13.753950119 9.9681196213 11.285659790 114.81559753 138.15660095 3.4769799709
 17.609380722 2.3955299854 -424.0664063 2.4953989983
 498.95760000
 6.4209799767 66.833770752 118.22384644 0.0926799998 0.1245199963 0.1989900023
 0.1676899940 0.1266700029 0.0564499982 1.4670900106 10.048810005 19.695159912
 14.190830231 10.360580444 11.707220078 111.28479767 133.90580750 3.4207601547
 17.902799606 1.8439400196 -423.9530945 2.4970760345
 499.11000000
 6.4133782387 68.313392639 119.36522675 0.0998200029 0.1314100027 0.1844300032
 0.1633999944 0.1224199980 0.0534299985 1.4655400515 10.394789696 20.357910156
 14.648269653 10.720049858 12.146140099 101.57740021 135.50970459 3.5544400215
 17.190299988 1.9467200041 -423.1250000 2.4852972031
 499.26240000
 6.4209799767 69.767501831 119.39202118 0.1120800003 0.1432400048 0.1926600039
 0.1729599983 0.1319099963 0.0602900013 1.4639999866 10.830570221 20.979650497
 15.233650208 11.185740471 12.669059753 79.561050415 132.15820313 3.4744198322
 16.520879745 1.9428501129 -420.7304993 2.4650630951
 499.41480000
 6.4209799767 69.976074219 119.32023621 0.1240999997 0.1548299938 0.2410700023
 0.1686899960 0.1276700050 0.0571799986 1.4645999670 11.150890350 21.302389145
 15.668439865 11.561670303 13.093629837 72.739791870 131.33250427 3.4093201160
 15.855819702 2.2918100357 -417.0780945 2.4452328682
 499.56720000
 6.4361853600 70.155052185 119.33493805 0.1248999983 0.1556099951 0.2314700037
 0.1608999968 0.1199499965 0.0517099984 1.4652099609 11.333510399 21.036979675
 15.789589882 11.744669914 13.258669853 74.728416443 129.82659912 3.3846199512
 15.384439468 2.2921898365 -414.6651917 2.4439141750
 499.71960000
 6.4285826683 69.183410645 119.28576660 0.1153699979 0.1464100033 0.2087099999
 0.1439400017 0.1031199992 0.0407399982 1.4629499912 11.418239594 20.420560837
 15.689760208 11.773130417 13.219799995 53.841869354 135.53039551 3.4262099266
 16.064760208 2.7036001682 -413.2749939 2.4596450329
 499.87200000
 6.3905749321 66.512298584 118.21268463 0.0933599994 0.1251800060 0.1748600006
 0.1417700052 0.1009600013 0.0394200012 1.4606800079 11.384200096 19.986570358
 15.450149536 11.687970161 13.081970215 45.486831665 142.90800476 3.6218099594
 17.625280380 2.6510899067 -413.3458252 2.4959480762
 500.02440000
 6.3905749321 64.702392578 116.82215881 0.0713099986 0.1039000005 0.1562599987
 0.1388300061 0.0980499983 0.0376800001 1.4597899914 11.415320396 19.626539230
 15.375200272 11.652930260 13.010959625 40.211868286 146.59260559 3.5922198296
 17.470289230 3.3946301937 -413.8583069 2.5323340893
 500.17680000
 6.3753705025 63.920005798 116.27318573 0.0625799969 0.0954800025 0.1573600024
 0.1444000006 0.1035699993 0.0410199985 1.4588999748 11.426090240 19.371639252
 15.291580200 11.656809807 12.941679955 47.464561462 144.99479675 3.6098499298
 17.170280457 3.3726601601 -415.4833069 2.5467360020
 500.32920000
 6.3981771469 63.880779266 116.32301331 0.0690499991 0.1017099991 0.1686600000
 0.1548900008 0.1139800027 0.0476800017 1.4603999853 11.458660126 19.288770676
 15.277759552 11.608730316 12.905159950 45.123950958 140.30690002 3.4887897968
 16.606159210 3.3267600536 -417.3929138 2.5360739231
 500.48160000
 6.4209799767 64.920722961 116.88248444 0.0783800036 0.1107200012 0.1920199990
 0.1625099927 0.1215400025 0.0528099984 1.4618999958 11.551349640 19.344570160
 15.328399658 11.544010162 12.909729958 46.035499573 138.78030396 3.4148800373
 16.835779190 3.3170099258 -419.7958069 2.5206708908
 500.63400000
 6.3677678108 65.918487549 118.21057892 0.0866499990 0.1186999977 0.1840199977
 0.1639000028 0.1229199991 0.0537800007 1.4632099867 11.647179604 19.625009537
 15.518469810 11.554059982 13.024270058 58.980098724 141.29919434 3.4750397205
 16.603620529 3.4813199043 -421.1417236 2.5070309639
 500.78640000
 6.3677678108 67.858177185 121.81694794 0.0939700007 0.1257600039 0.1776199937
 0.1590300053 0.1180799976 0.0504299998 1.4645299911 11.725460052 19.978420258
 15.740889549 11.578140259 13.127389908 89.264572144 141.61230469 3.4247598648
 16.682699203 3.8127901554 -421.0791931 2.4949550629
 500.93880000
 6.3981771469 68.618927002 121.21325684 0.1044400036 0.1358599961 0.2016800046
 0.1690299958 0.1280000061 0.0574200004 1.4664800167 11.848449707 20.313499451
 15.936929703 11.612139702 13.298629761 126.92140198 136.74729919 3.2448601723
 16.133819580 3.9273900986 -420.0417175 2.4776809216
 501.09120000
 6.3905749321 68.459175110 120.84234619 0.1079799980 0.1392800063 0.2173400074
 0.1741899997 0.1331299990 0.0612099990 1.4684300423 11.791930199 20.521379471
 16.026899338 11.655929565 13.401809692 103.72740173 134.74000549 3.2037398815
 16.188699722 3.8485100269 -419.2917175 2.4718258381
 501.24360000
 6.3563661575 68.644035339 119.78981018 0.1032600030 0.1347199976 0.2019000053
 0.1666100025 0.1255999953 0.0556799993 1.4695400000 11.677659988 20.395910263
 15.890419960 11.639610291 13.358619690 95.731483459 136.44050598 3.2518599033
 16.596899033 3.8137099743 -419.1333008 2.4796288013
 501.39600000
 6.3449645042 66.805152893 118.24496460 0.0915099978 0.1233799979 0.1843300015
 0.1496900022 0.1088199988 0.0443199985 1.4706499577 11.521209717 19.871360779
 15.530770302 11.554940224 13.157879829 107.72940063 140.49589539 3.4241199493
 16.509740829 3.9295201302 -419.0792236 2.4990139008
 501.54840000
 6.2689490318 65.483963013 116.50617218 0.0870300010 0.1190600023 0.1760500073
 0.1380099952 0.0972300023 0.0371900015 1.4687999487 11.311969757 19.149330139
 15.028289795 11.408969879 12.846779823 140.74819946 143.68829346 3.4641098976
 16.167499542 4.3327598572 -418.7749939 2.5064041615
 501.70080000
 6.3373622894 64.779693604 115.92147827 0.0865499973 0.1186000034 0.1746000051
 0.1350400001 0.0942799971 0.0354700014 1.4669500589 11.067689896 18.375719070
 14.469889641 11.210610390 12.488880157 139.92909241 144.87820435 3.5538699627
 16.355600357 4.0716800690 -418.6624756 2.5071980953
 501.85320000
 6.3601694107 65.074676514 115.24292755 0.0912899971 0.1231700033 0.2010599971
 0.1392100006 0.0984200016 0.0379000008 1.4642499685 10.804450035 17.645170212
 13.973839760 10.988059998 12.150019646 142.45320129 141.35989380 3.4260299206
 15.700619698 4.1154198647 -418.7030945 2.4993720055
