# LAS format log file from PETREL
# Project units are specified as depth units
#==================================================================
~Version information
VERS.   2.0:
WRAP.   NO:
#==================================================================
~Well
STRT .m      197.51040000 :
STOP .m      951.89040000 :
STEP .m     0.15240000 :
NULL .        -999.250000 :
COMP.           : COMPANY
WELL.  P-135   : WELL
FLD.            : FIELD
LOC.            : LOCATION
SRVC.           : SERVICE COMPANY
DATE.  2014-09-16 16:30:35   : Log Export Date {yyyy-MM-dd HH:mm:ss}
PROV.           : PROVINCE
UWI.      : UNIQUE WELL ID
API.            : API NUMBER
#==================================================================
~Curve
DEPT .m                   : DEPTH
Sonic_despiked .us/ft     : Sonic_despiked
RHOB_despiked .g/cm3      : RHOB_despiked
TWT .ms                   : TWT
~Parameter
#==================================================================
~Ascii
# ...
 496.67160000 65.888893127 2.5221669674 167.29637146
 496.82400000 65.870544434 2.5072200298 167.36279297
 496.97640000 65.852188110 2.5045142174 167.42921448
 497.12880000 65.833839417 2.5018081665 167.49562073
 497.28120000 65.630783081 2.5113730431 167.56204224
 497.43360000 65.391151428 2.5238640308 167.62846375
 497.58600000 65.622253418 2.5215950012 167.69288635
 497.73840000 65.658630371 2.5045650005 167.75527954
 497.89080000 65.695014954 2.5025768280 167.81767273
 498.04320000 65.731391907 2.5005886555 167.88006592
 498.19560000 65.767768860 2.4986004829 167.94244385
 498.34800000 65.804145813 2.4966125488 168.00483704
 498.50040000 65.840530396 2.4946243763 168.06723022
 498.65280000 65.876907349 2.4926362038 168.12962341
 498.80520000 66.040588379 2.4953989983 168.19200134
 498.95760000 66.054756165 2.4970760345 168.25439453
 499.11000000 66.068923950 2.4922518730 168.31678772
 499.26240000 66.083099365 2.4920637608 168.37918091
 499.41480000 66.097267151 2.4918758869 168.44157410
 499.56720000 66.111434937 2.4916877747 168.50395203
 499.71960000 66.125602722 2.4938178062 168.56634521
 499.87200000 66.139778137 2.4959480762 168.62873840
 500.02440000 66.153945923 2.5021288395 168.69113159
 500.17680000 66.168113708 2.5083093643 168.75350952
 500.32920000 66.084899902 2.5144901276 168.81590271
 500.48160000 66.001693726 2.5206708908 168.87829590
 500.63400000 65.918487549 2.5070309639 168.94068909
 500.78640000 65.846069336 2.4949550629 169.00308228
 500.93880000 65.773643494 2.4959697723 169.06546021
 501.09120000 65.701225281 2.4969844818 169.12785339
 501.24360000 65.628807068 2.4979991913 169.19024658
 501.39600000 65.556381226 2.4990139008 169.25263977
 501.54840000 65.483963013 2.5064041615 169.31501770
 501.70080000 65.180152893 2.5071980953 169.37741089
 501.85320000 65.074676514 2.4993720055 169.43980408
 502.00560000 65.397888184 2.5054020882 169.50219727
 502.15800000 65.597129822 2.5076389313 169.56457520
 502.31040000 65.796371460 2.5085010529 169.62696838
 502.46280000 65.645011902 2.5013167858 169.68936157
 502.61520000 65.493644714 2.4967210293 169.75175476
 502.76760000 65.342285156 2.5050449371 169.81414795
 502.92000000 65.190917969 2.5138239861 169.87652588
 503.07240000 65.039558411 2.5244560242 169.93891907
 503.22480000 64.888198853 2.5209419727 170.00131226
 503.37720000 64.736831665 2.5124130249 170.06370544
 503.52960000 64.585472107 2.5000438690 170.12608337
 503.68200000 65.108268738 2.5047171116 170.18847656
 503.83440000 65.496582031 2.5125210285 170.25086975
 503.98680000 65.394790649 2.5113468170 170.31326294
 504.13920000 65.293006897 2.5032498837 170.37565613
 504.29160000 65.044075012 2.5079650879 170.43803406
 504.44400000 64.646469116 2.5159461498 170.50042725
 504.59640000 64.651855469 2.5239169598 170.56282043
 504.74880000 64.665481567 2.5157899857 170.62521362
 504.90120000 64.640899658 2.5186688900 170.68759155
 505.05360000 64.616310120 2.5097820759 170.74998474
 505.20600000 64.591720581 2.5082294941 170.81237793
 505.35840000 64.567138672 2.5066769123 170.87477112
 505.51080000 64.542556763 2.5218319893 170.93714905
 505.66320000 64.517967224 2.5350279808 170.99954224
 505.81560000 64.493377686 2.5367670059 171.06193542
 505.96800000 64.468795776 2.5361685753 171.12432861
 506.12040000 64.444213867 2.5355703831 171.18672180
 506.27280000 64.419624329 2.5349719524 171.24909973
 506.42520000 64.395034790 2.5343735218 171.31149292
 506.57760000 64.370452881 2.5337753296 171.37388611
 506.73000000 64.345870972 2.5331768990 171.43627930
 506.88240000 64.321281433 2.5238139629 171.49865723
 507.03480000 64.296691895 2.5112051964 171.56105042
 507.18720000 64.272109985 2.5091187954 171.62344360
 507.33960000 64.333229065 2.5117971897 171.68583679
 507.49200000 64.394340515 2.5062608719 171.74822998
 507.64440000 64.455459595 2.5058925152 171.81060791
 507.79680000 64.516571045 2.5055241585 171.87300110
 507.94920000 64.577690125 2.5051555634 171.93539429
 508.10160000 64.638801575 2.5047872066 171.99778748
 508.25400000 64.699920654 2.5044188499 172.06016541
 508.40640000 64.587356567 2.5205008984 172.12255859
 508.55880000 64.474800110 2.5366139412 172.18495178
 508.71120000 64.362236023 2.5375239849 172.24734497
 508.86360000 64.249679565 2.5384340286 172.30973816
 509.01600000 64.137115479 2.5317218304 172.37211609
 509.16840000 64.427490234 2.5300910473 172.43450928
 509.32080000 64.382087708 2.5108249187 172.49690247
 509.47320000 64.336685181 2.5100409985 172.55929565
 509.62560000 64.291282654 2.5092570782 172.62167358
 509.77800000 64.245880127 2.5380690098 172.68406677
 509.93040000 64.200469971 2.5384709835 172.74645996
 510.08280000 64.155067444 2.5388729572 172.80885315
 510.23520000 64.697731018 2.5392749310 172.87123108
 510.38760000 64.697563171 2.5396769047 172.93362427
 510.54000000 64.697395325 2.5376646519 172.99601746
 510.69240000 64.697227478 2.5375838280 173.05841064
 510.84480000 64.697059631 2.5375030041 173.12080383
 510.99720000 64.696891785 2.5310010910 173.18318176
 511.14960000 64.696723938 2.5315401554 173.24557495
 511.30200000 64.696556091 2.5320529938 173.30796814
 511.45440000 64.696388245 2.5319740772 173.37036133
 511.60680000 64.696220398 2.5248849392 173.43273926
 511.75920000 64.696052551 2.5247051716 173.49513245
 511.91160000 64.791793823 2.5197088718 173.55752563
 512.06400000 64.741012573 2.5187189579 173.61991882
 512.21640000 64.690223694 2.5163130760 173.68231201
 512.36880000 64.639442444 2.5200948715 173.74468994
 512.52120000 64.588661194 2.5163609982 173.80708313
 512.67360000 64.537879944 2.5087399483 173.86947632
 512.82600000 64.487091064 2.5083255768 173.93186951
 512.97840000 64.436309814 2.5079112053 173.99424744
 513.13080000 64.403839111 2.5074965954 174.05664063
 513.28320000 64.371376038 2.5070822239 174.11903381
 513.43560000 64.338905334 2.5066678524 174.18142700
 513.58800000 64.306442261 2.5195062160 174.24380493
 513.74040000 64.390075684 2.5167829990 174.30619812
 513.89280000 64.473709106 2.5167810917 174.36859131
 514.04520000 64.406448364 2.5214140415 174.43098450
 514.19760000 64.339195251 2.5243048668 174.49337769
 514.35000000 64.371109009 2.5250480175 174.55575562
 514.50240000 64.403030396 2.5216231346 174.61814880
 514.65480000 64.434944153 2.5270190239 174.68054199
 514.80720000 64.466857910 2.5217118263 174.74293518
 514.95960000 64.498779297 2.5133130550 174.80531311
 515.11200000 64.530693054 2.5113208294 174.86770630
 515.26440000 64.562606812 2.5093283653 174.93009949
 515.41680000 64.594528198 2.5073361397 174.99249268
 515.56920000 64.626441956 2.5053439140 175.05488586
 515.72160000 64.400184631 2.5196740627 175.11726379
 515.87400000 64.549720764 2.5284080505 175.17965698
 516.02640000 64.608253479 2.5219881535 175.24205017
 516.17880000 64.666778564 2.5068478584 175.30444336
 516.33120000 64.725311279 2.5049340725 175.36682129
 516.48360000 64.628700256 2.5105090141 175.42921448
 516.63600000 64.532089233 2.5169060230 175.49160767
 516.78840000 64.435478210 2.5219769478 175.55400085
 516.94080000 64.581115723 2.5339541435 175.61637878
 517.09320000 64.524879456 2.5336234570 175.67877197
 517.24560000 64.468650818 2.5332927704 175.74116516
 517.39800000 64.412414551 2.5329618454 175.80355835
 517.55040000 64.356178284 2.5326311588 175.86595154
 517.70280000 64.299942017 2.5193629265 175.92832947
 517.85520000 64.305374146 2.5158050060 175.99072266
 518.00760000 64.310806274 2.5180029869 176.05311584
 518.16000000 64.316238403 2.5186450481 176.11550903
 518.31240000 64.321670532 2.5158565044 176.17788696
 518.46480000 64.327102661 2.5130681992 176.24028015
 518.61720000 64.332534790 2.5102796555 176.30267334
 518.76960000 64.337966919 2.5074911118 176.36506653
 518.92200000 64.343399048 2.5201721191 176.42745972
 519.07440000 64.135299683 2.5397360325 176.48983765
 519.22680000 64.117004395 2.5390655994 176.55223083
 519.37920000 64.098709106 2.5383954048 176.61462402
 519.53160000 64.080413818 2.5377249718 176.67701721
