# LAS format log file from PETREL
# Project units are specified as depth units
#==================================================================
~Version information
VERS.   2.0:
WRAP.   NO:
#==================================================================
~Well
STRT .m      197.51040000 :
STOP .m      951.89040000 :
STEP .m     0.15240000 :
NULL .        -999.250000 :
COMP.           : COMPANY
WELL.  P-135   : WELL
FLD.            : FIELD
LOC.            : LOCATION
SRVC.           : SERVICE COMPANY
DATE.  2014-09-16 16:30:35   : Log Export Date {yyyy-MM-dd HH:mm:ss}
PROV.           : PROVINCE
UWI.      : UNIQUE WELL ID
API.            : API NUMBER
#==================================================================
~Curve
DEPT .m                   : DEPTH
Sonic_despiked .us/ft     : Sonic_despiked
RHOB_despiked .g/cm3      : RHOB_despiked
TWT .ms                   : TWT
~Parameter
#==================================================================
~Ascii
# ...
 404.62200000 71.721916199 2.4458019733 127.17823792
 404.77440000 71.642936707 2.4847810268 127.24465942
 404.92680000 72.482475281 2.4858419895 127.31108093
 405.07920000 72.640823364 2.4869029522 127.37750244
 405.23160000 72.799163818 2.4879639149 127.44392395
 405.38400000 72.290000916 2.4890248775 127.51034546
 405.53640000 72.225845337 2.4873020649 127.57676697
 405.68880000 72.161682129 2.4754309654 127.64318848
 405.84120000 72.097526550 2.4629340172 127.70960999
 405.99360000 72.033363342 2.4468729496 127.77603149
 406.14600000 71.969207764 2.4539070129 127.84244537
 406.29840000 71.905052185 2.4617280960 127.90886688
 406.45080000 71.840888977 2.4637899399 127.97528839
 406.60320000 71.776733398 2.4587490559 128.04171753
 406.75560000 71.712570190 2.4573750496 128.10813904
 406.90800000 71.648414612 2.4697108269 128.17454529
 407.06040000 71.584259033 2.4730648994 128.24096680
 407.21280000 71.520095825 2.4720320702 128.30738831
 407.36520000 71.455940247 2.4696669579 128.37380981
 407.51760000 71.256225586 2.4775109291 128.44023132
 407.67000000 71.056510925 2.4792151451 128.50665283
 407.82240000 70.856796265 2.4747560024 128.57307434
 407.97480000 70.657081604 2.4601278305 128.63949585
 408.12720000 70.457359314 2.4628696442 128.70591736
 408.27960000 70.257644653 2.4656114578 128.77233887
 408.43200000 70.057929993 2.4683532715 128.83876038
 408.58440000 69.858215332 2.4710950851 128.90518188
 408.73680000 69.658500671 2.4900259972 128.97160339
 408.88920000 68.844047546 2.4855470657 129.03802490
 409.04160000 68.729141235 2.4847800732 129.10444641
 409.19400000 68.394256592 2.4913029671 129.17086792
 409.34640000 67.437126160 2.5024650097 129.23728943
 409.49880000 67.684585571 2.5070569515 129.30371094
 409.65120000 68.082138062 2.5090501308 129.37013245
 409.80360000 67.621223450 2.5149838924 129.43653870
 409.95600000 67.168762207 2.5240440369 129.50296021
 410.10840000 66.716308594 2.5207154751 129.56938171
 410.26080000 66.263847351 2.5173869133 129.63580322
 410.41320000 66.372299194 2.5054769516 129.70222473
 410.56560000 66.480758667 2.4971508980 129.76864624
 410.71800000 66.589218140 2.4914510250 129.83506775
 410.87040000 66.697677612 2.4869742393 129.90148926
 411.02280000 67.904655457 2.4724709988 129.96791077
 411.17520000 67.813583374 2.4743692875 130.03433228
 411.32760000 67.722503662 2.4762673378 130.10075378
 411.48000000 66.792900085 2.4781656265 130.16717529
 411.63240000 65.863288879 2.4800639153 130.23359680
 411.78480000 66.535980225 2.4925229549 130.30001831
 411.93720000 66.006950378 2.5135920048 130.36643982
 412.08960000 65.477920532 2.5325639248 130.43286133
 412.24200000 64.948883057 2.5348465443 130.49928284
 412.39440000 64.419853210 2.5371291637 130.56570435
 412.54680000 64.311027527 2.5394117832 130.63212585
 412.69920000 64.202194214 2.5416944027 130.69854736
 412.85160000 64.093368530 2.5439770222 130.76495361
 413.00400000 63.984542847 2.5419771671 130.83137512
 413.15640000 63.875713348 2.5372009277 130.89779663
 413.30880000 63.766887665 2.5352780819 130.96421814
 413.46120000 63.658058167 2.5255379677 131.03063965
 413.61360000 63.875324249 2.5217218399 131.09706116
 413.76600000 64.753204346 2.5220310688 131.16348267
 413.91840000 64.654891968 2.5251832008 131.22990417
 414.07080000 64.556579590 2.5189609528 131.29632568
 414.22320000 64.458267212 2.5151150227 131.36274719
 414.37560000 64.359954834 2.5078349113 131.42916870
 414.52800000 64.261642456 2.5048520565 131.49559021
 414.68040000 64.163330078 2.5031459332 131.56201172
 414.83280000 64.065017700 2.5112318993 131.62843323
 414.98520000 63.966701508 2.5223660469 131.69485474
 415.13760000 63.904384613 2.5339899063 131.76127625
 415.29000000 63.842067719 2.5484349728 131.82769775
 415.44240000 63.779750824 2.5480151176 131.89411926
 415.59480000 63.717433929 2.5475952625 131.96054077
 415.74720000 63.655120850 2.5471754074 132.02696228
 415.89960000 63.592803955 2.5467553139 132.09336853
 416.05200000 63.530487061 2.5463354588 132.15979004
 416.20440000 63.468170166 2.5459156036 132.22621155
 416.35680000 63.405853271 2.5454957485 132.29263306
 416.50920000 63.343536377 2.5450758934 132.35905457
 416.66160000 63.281219482 2.5353679657 132.42547607
 416.81400000 63.218902588 2.5375599861 132.49189758
 416.96640000 63.156585693 2.5503191948 132.55831909
 417.11880000 63.094272614 2.5490372181 132.62474060
 417.27120000 63.031955719 2.5457980633 132.69116211
 417.42360000 62.969638824 2.5423860550 132.75758362
 417.57600000 62.907321930 2.5464589596 132.82400513
 417.72840000 62.845005035 2.5459020138 132.89042664
 417.88080000 62.921504974 2.5304098129 132.95684814
 418.03320000 62.998004913 2.5296869278 133.02326965
 418.18560000 63.074504852 2.5289640427 133.08969116
 418.33800000 63.151004791 2.5282409191 133.15611267
 418.49040000 63.227504730 2.5275180340 133.22253418
 418.64280000 63.304004669 2.5368988514 133.28895569
 418.79520000 62.807147980 2.5368559361 133.35537720
 418.94760000 62.974777222 2.5334451199 133.42178345
 419.10000000 63.142402649 2.5415420532 133.48820496
 419.25240000 63.310031891 2.5456843376 133.55462646
 419.40480000 63.477657318 2.5396418571 133.62104797
 419.55720000 63.645286560 2.5335991383 133.68746948
 419.70960000 63.600208282 2.5143578053 133.75389099
 419.86200000 63.555126190 2.5155291557 133.82031250
 420.01440000 63.510047913 2.5267889500 133.88673401
 420.16680000 63.667812347 2.5425171852 133.95315552
 420.31920000 63.825576782 2.5473129749 134.01957703
 420.47160000 63.983345032 2.5386331081 134.08599854
 420.62400000 64.141105652 2.5098969936 134.15242004
 420.77640000 64.298873901 2.5094227791 134.21884155
 420.92880000 64.673133850 2.5089483261 134.28526306
 421.08120000 63.683998108 2.5084741116 134.35168457
 421.23360000 63.696346283 2.5079998970 134.41810608
 421.38600000 63.708698273 2.5358140469 134.48452759
 421.53840000 63.721046448 2.5377542973 134.55094910
 421.69080000 63.733394623 2.5396947861 134.61737061
 421.84320000 63.745746613 2.5416350365 134.68377686
 421.99560000 63.758094788 2.5334517956 134.75019836
 422.14800000 63.770442963 2.5249099731 134.81661987
 422.30040000 64.053611755 2.5159120560 134.88304138
 422.45280000 64.336776733 2.5141808987 134.94946289
 422.60520000 64.619949341 2.5259180069 135.01588440
 422.75760000 64.903114319 2.5216100216 135.08230591
 422.91000000 65.186286926 2.5092709064 135.14872742
 423.06240000 65.469451904 2.4916188717 135.21514893
 423.21480000 65.180091858 2.4826340675 135.28157043
 423.36720000 65.381469727 2.4873797894 135.34799194
 423.51960000 65.582855225 2.5017151833 135.41441345
 423.67200000 65.784233093 2.5162050724 135.48083496
 423.82440000 65.985610962 2.5192930698 135.54725647
 423.97680000 66.186988831 2.5234651566 135.61367798
 424.12920000 65.198913574 2.5234818459 135.68009949
 424.28160000 65.078605652 2.5288589001 135.74652100
 424.43400000 66.287475586 2.5246641636 135.81294250
 424.58640000 66.338874817 2.5069642067 135.87936401
 424.73880000 66.390281677 2.4768221378 135.94578552
 424.89120000 66.441680908 2.4743878841 136.01219177
 425.04360000 66.493080139 2.4719533920 136.07861328
 425.19600000 66.544479370 2.4695191383 136.14503479
 425.34840000 66.595886230 2.4744589329 136.21145630
 425.50080000 66.647285461 2.4680330753 136.27787781
 425.65320000 66.698684692 2.4690427780 136.34429932
 425.80560000 66.750091553 2.4700527191 136.41072083
 425.95800000 66.801490784 2.4710624218 136.47714233
 426.11040000 66.852890015 2.4720723629 136.54356384
 426.26280000 66.904289246 2.4730820656 136.60998535
 426.41520000 66.955696106 2.4740917683 136.67640686
 426.56760000 67.007095337 2.4751017094 136.74282837
 426.72000000 67.058494568 2.4761114120 136.80924988
 426.87240000 67.109901428 2.4771213531 136.87567139
 427.02480000 67.161300659 2.4781310558 136.94209290
 427.17720000 67.212699890 2.4791407585 137.00851440
 427.32960000 67.264099121 2.4801506996 137.07493591
 427.48200000 67.315505981 2.4811604023 137.14135742
