# LAS format log file from PETREL
# Project units are specified as depth units
#==================================================================
~Version information
VERS.   2.0:
WRAP.   YES:
#==================================================================
~Well
STRT .m      197.51040000 :
STOP .m      951.89040000 :
STEP .m     0.15240000 :
NULL .        -999.250000 :
COMP            .                Eastrock Resources LTD.   :COMPANY
WELL            .                Eastrock Lauren #1        :WELL NAME
FLD             .                        Lauren            :FIELD NAME
RIGN            .                    Foragaz #3            :Rig Name
RIGTYP          .                          Land            :Rig Type
SON             .                    BX61-00001            :Service Order Number
SRVC            .                  Schlumberger            :SERVICE COMPANY
DATE            .                    12/30/2011            :LOG DATE(Composite Date for Composite LAP) (MM/DD/YYYY)
CLAB            .                     Province:            :County Label
CNTY            .                   Nova Scotia            :COUNTY
SLAB            .                                          :State/Province Label
STAT            .                                          :STATE or PROVINCE
PROV            .                                          :STATE or PROVINCE
CTRY            .                        Canada            :COUNTRY
CONT_REGION     .                    N. America            :Continent Region
SECT            .                       -999.25            :Section
TOWN            .                    Springhill            :Township
RANG            .                       -999.25            :Range
API             .                        435655            :API NUMBER
UWI             .                       -999.25            :UNIQUE WELL ID
LUL             .                          CANS            :Logging Unit Location
LUN             .                          2316            :Logging Unit Number
LOC             .                    Springhill            :FIELD LOCATION
FL1             .                                          :Field Location Line 1
FL2             .                       -999.25            :Field Location Line 2
LATI            .deg             45∞ 39' 26.518" N         :LATITUDE
LONG            .deg             64∞ 0' 51.347" W          :LONGITUDE
PDAT            .                            GL            :Local Permanent Datum
LMF             .                            KB            :Logging Measured From
APD             .m                      4.00000            :Elevation of Depth Reference (LMF) Above Permanent Datum
EPD             .m                    119.00000            :Elevation of Permanent Datum (PDAT) above Mean Sea Level
EKB             .m                    123.00000            :Elevation of Kelly Bushing Above Permanent Datum
EDF             .m                    122.70000            :Elevation of Drill Floor Above Permanent Datum
EGL             .m                    119.00000            :Elevation of Ground Level Above Permanent Datum
ECF             .m                      -999.25            :Elevation of Casing Flange above Permanent Datum
#--------------------------------------------------
#==================================================================
~Curve
DEPT .m                   : DEPTH
CALI .in                  : Caliper
DT .us/ft                 : Delta-t P-sonic
DTS .us/ft                : Delta-t Shear-sonic
DPHI_SAN .m3/m3           : Density Porosity (Sandstone)
DPHI_LIM .m3/m3           : Density Porosity (Limestone)
DPHI_DOL .m3/m3           : Density Porosity (Dolomite)
NPHI_SAN .m3/m3           : Enhanced Thermal Neutron Porosity (Sandstone)
NPHI_LIM .m3/m3           : Enhanced Thermal Neutron Porosity (Limestone)
NPHI_DOL .m3/m3           : Enhanced Thermal Neutron Porosity (Dolomite)
AMF .ohm.m                : Array Induction Mud Resistivity Fully Calibrated
AF90 .ohm.m               : Array Induction Four Foot Resistivity A90
AF10 .ohm.m               : Array Induction Four Foot Resistivity A10
AF20 .ohm.m               : Array Induction Four Foot Resistivity A20
AF60 .ohm.m               : Array Induction Four Foot Resistivity A60
AF30 .ohm.m               : Array Induction Four Foot Resistivity A30
RXOZ .ohm.m               : Invaded Formation Resistivity filtered at 18 inches
GR .gAPI                  : Gamma Ray
POTA .gAPI                : POTA (percent)
THOR .gAPI                : THOR (percent)
URAN .gAPI                : URAN (percent)
SP .mV                    : SP
RHOB .g/cm3               : RHOB
~Parameter
#==================================================================
~Ascii
# ...
 687.17160000
 6.5045986176 60.764717102 107.80089569 0.0323299989 0.0662799999 0.1278699934
 0.1424899995 0.1016800031 0.0398599990 1.4297399521 42.176788330 44.298740387
 41.739219666 40.965599060 41.146858215 66.272476196 132.21940613 3.1314897537
 16.483869553 3.5269198418 -420.0656128 2.5966589451
 687.32400000
 6.4931969643 60.603443146 107.77565765 0.0368600003 0.0706499964 0.1360500008
 0.1406999975 0.0998999998 0.0387800001 1.4296499491 43.210098267 45.587619781
 43.157478333 42.077499390 42.559089661 60.275260925 131.80999756 3.1537499428
 16.742830276 3.2364501953 -420.2500000 2.5891869068
 687.47640000
 6.4817953110 60.495849609 107.05651855 0.0405000001 0.0741700009 0.1388300061
 0.1365099996 0.0957399979 0.0363099985 1.4298299551 44.404758453 46.940170288
 44.650508881 43.201000214 44.031909943 49.390769958 131.09129333 3.1703000069
 16.015520096 3.4473500252 -420.2218933 2.5831730366
 687.62880000
 6.4817953110 60.601097107 107.45660400 0.0461499989 0.0796200037 0.1528899968
 0.1342999935 0.0935499966 0.0350399986 1.4299999475 45.152221680 47.654640198
 45.645309448 43.906608582 44.984378815 42.486949921 131.72090149 3.1561598778
 16.570720673 3.2779500484 -420.2250061 2.5738480091
 687.78120000
 6.4665904045 60.819458008 107.05088043 0.0463300012 0.0797900036 0.1428699940
 0.1349000037 0.0941400006 0.0353900008 1.4309200048 44.978691101 48.060779572
 45.975200653 44.013801575 45.315479279 49.997829437 132.09860229 3.1195099354
 17.020849228 3.1872200966 -419.4966736 2.5735630989
 687.93360000
 6.4665904045 60.618988037 106.77366638 0.0495899990 0.0829399973 0.1535599977
 0.1370400041 0.0962700024 0.0366199985 1.4318300486 44.286510468 48.127960205
 45.651279449 43.633411407 44.982120514 59.282138824 131.76679993 3.1388700008
 16.176179886 3.4445900917 -417.0625000 2.5681798458
 688.08600000
 6.4817953110 60.787666321 107.02625275 0.0417700000 0.0753900036 0.1477500051
 0.1367300004 0.0959599987 0.0364399999 1.4307800531 44.001670837 48.079650879
 45.303489685 43.307468414 44.611278534 64.655578613 131.53919983 3.1280801296
 16.549549103 3.2238700390 -414.4375000 2.5810821056
 688.23840000
 6.4893937111 60.795528412 106.79817200 0.0328899994 0.0668200031 0.1434199959
 0.1429100037 0.1020900011 0.0401099995 1.4297200441 43.641761780 48.374618530
 45.183349609 43.074401855 44.429859161 63.871379852 132.37750244 3.1069998741
 15.945509911 3.6751501560 -413.1531067 2.5957300663
 688.39080000
 6.5045986176 60.466770172 106.79499817 0.0240000002 0.0582400002 0.1260599941
 0.1459899992 0.1051499993 0.0419999994 1.4298199415 44.002918243 49.239120483
 45.725608826 43.510921478 44.885818481 74.028182983 132.81080627 3.1384098530
 16.084959030 3.5262799263 -412.5066223 2.6104068756
 688.54320000
 6.4817953110 60.063705444 106.41293335 0.0227000006 0.0570000000 0.1172299981
 0.1460999995 0.1052599996 0.0420700014 1.4299299717 45.108829498 50.680168152
 46.907169342 44.510540009 46.019931793 78.126091003 133.90310669 3.0507500172
 16.529541016 3.7673501968 -413.4219055 2.6125371456
 688.69560000
 6.4817953110 59.910572052 105.41580963 0.0233999994 0.0576700009 0.1264500022
 0.1421000063 0.1012900025 0.0396200009 1.4303200245 46.472518921 52.390670776
 48.399028778 45.847320557 47.496349335 63.928001404 135.21150208 3.1722400188
 16.793951035 3.4041700363 -413.7795715 2.6113851070
 688.84800000
 6.4893937111 60.042797089 105.79690552 0.0258099996 0.0599900000 0.1339499950
 0.1372600049 0.0964900032 0.0367500000 1.4307099581 47.864318848 53.928009033
 49.677799225 47.144111633 48.967670441 65.478942871 136.81880188 3.2445900440
 17.010499954 3.3447399139 -414.2281189 2.6074149609
 689.00040000
 6.4817953110 60.058769226 105.83890533 0.0296800006 0.0637200028 0.1323300004
 0.1397400051 0.0989499986 0.0382100008 1.4305599928 49.359149933 55.491329193
 50.999248505 48.389549255 50.258171082 61.619541168 133.71740723 3.1368200779
 16.585580826 3.3351399899 -413.4703979 2.6010339260
 689.15280000
 6.4893937111 59.815933228 105.75865173 0.0342100002 0.0680999979 0.1375900060
 0.1467999965 0.1059499979 0.0425000004 1.4304100275 50.561500549 57.032291412
 52.332931519 49.669891357 51.709598541 59.302238464 131.53480530 3.0507700443
 15.810450554 3.4714000225 -411.5780945 2.5935559273
 689.30520000
 6.5045986176 59.507019043 105.24957275 0.0320699997 0.0660300031 0.1406400055
 0.1481900066 0.1073300019 0.0433700010 1.4315799475 51.650009155 58.584018707
 53.598808289 50.688999176 53.042881012 51.063568115 130.16149902 3.0589599609
 14.675829887 3.7236800194 -409.9507141 2.5970869064
 689.45760000
 6.4969959259 59.638908386 105.61914063 0.0263599996 0.0605200008 0.1244999990
 0.1432999969 0.1024800017 0.0403500013 1.4327499866 52.617759705 60.061840057
 54.741500854 51.734268188 54.273220062 60.486560822 133.42770386 3.1519000530
 14.720149994 3.9034698009 -409.0328979 2.6065061092
 689.61000000
 6.4893937111 59.737632751 105.57838440 0.0173599999 0.0518300012 0.1257800013
 0.1371099949 0.0963400006 0.0366699994 1.4319700003 53.430568695 60.778709412
 55.791580200 52.695861816 55.408470154 81.388679504 132.36749268 3.1354098320
 15.691089630 3.4086499214 -409.0749817 2.6213629246
 689.76240000
 6.4817953110 59.611717224 105.56320953 0.0111199999 0.0458099991 0.1119100004
 0.1402300000 0.0994300023 0.0384999998 1.4311900139 54.093189240 61.308841705
 56.832561493 53.606948853 56.513530731 98.721862793 132.70199585 3.2006800175
 15.419489861 3.3641700745 -409.7894897 2.6316580772
 689.91480000
 6.4817953110 59.273571014 105.60722351 0.0035100000 0.0384700000 0.1072200015
 0.1496800035 0.1088100001 0.0443099998 1.4300500154 54.821910858 62.153770447
 57.925170898 54.477638245 57.446861267 59.767700195 134.34030151 3.2301898003
 15.850749969 3.2572801113 -409.8947144 2.6442110538
 690.06720000
 6.4665904045 59.171161652 105.35692596 -0.000800000 0.0343200006 0.1135499999
 0.1482699960 0.1074099988 0.0434199981 1.4289100170 55.260368347 63.251510620
 58.793449402 55.409351349 58.301651001 46.209739685 138.93800354 3.3897898197
 16.535200119 3.2716400623 -408.5328979 2.6513180733
 690.21960000
 6.4741930962 59.068134308 104.94255066 0.0024200000 0.0374299996 0.1097399965
 0.1436000019 0.1027799994 0.0405299999 1.4285800457 56.423568726 64.191947937
 59.710090637 56.547210693 59.512329102 48.238880157 138.49510193 3.4274599552
 16.188640594 3.1249899864 -407.4242859 2.6459999084
 690.37200000
 6.4817953110 59.040401459 105.07251740 0.0083400002 0.0431400016 0.1144199967
 0.1391600072 0.0983700007 0.0378700010 1.4282499552 57.504619598 65.097366333
 60.558238983 57.190719604 60.435298920 81.482910156 135.23199463 3.3010199070
 15.673830032 3.3203501701 -407.3781128 2.6362338066
 690.52440000
 6.4893937111 59.171554565 105.02852631 0.0186800007 0.0531099997 0.1125399992
 0.1442199945 0.1033900008 0.0409100018 1.4273099899 56.957569122 65.077941895
 60.372390747 56.740829468 60.199901581 84.079727173 132.49879456 3.1656801701
 15.684411049 3.2957100868 -407.9112244 2.6191809177
 690.67680000
 6.5198030472 59.433803558 104.67968750 0.0236099996 0.0578700006 0.1203700006
 0.1554400027 0.1145199984 0.0480300002 1.4263600111 56.753219604 64.750183105
 60.145778656 56.545829773 60.072311401 73.279823303 129.86039734 3.1254701614
 14.997560501 3.3724999428 -407.8453979 2.6110479832
 690.82920000
 6.5045986176 59.829254150 104.56840515 0.0284400005 0.0625300035 0.1435900033
 0.1645700037 0.1235800013 0.0542399995 1.4252099991 56.317340851 64.551078796
 60.011310577 55.978710175 59.851348877 62.999961853 130.05119324 3.1427099705
 15.448821068 3.2132000923 -407.7368164 2.6030700207
 690.98160000
 6.5045986176 60.119266510 105.41861725 0.0288900007 0.0629699975 0.1380099952
 0.1652899981 0.1243000031 0.0547499992 1.4240599871 55.803878784 64.578826904
 60.139591217 55.992309570 59.840709686 70.837593079 127.27770233 3.0755300522
 15.573670387 2.9344301224 -407.7663879 2.6023259163
 691.13400000
 6.5045986176 60.293552399 105.51527405 0.0282000005 0.0622900017 0.1318199933
 0.1587699950 0.1178300008 0.0502599999 1.4233900309 56.057430267 65.293869019
 60.788928986 56.651248932 60.314720154 75.411071777 128.81149292 3.0735599995
 16.231779099 2.8877601624 -408.3586121 2.6034770012
