# LAS format log file from PETREL
# Project units are specified as depth units
#==================================================================
~Version information
VERS.   2.0:
WRAP.   NO:
#==================================================================
~Well
STRT .m      197.51040000 :
STOP .m      951.89040000 :
STEP .m     0.15240000 :
NULL .        -999.250000 :
COMP.           : COMPANY
WELL.  P-135   : WELL
FLD.            : FIELD
LOC.            : LOCATION
SRVC.           : SERVICE COMPANY
DATE.  2014-09-16 16:30:35   : Log Export Date {yyyy-MM-dd HH:mm:ss}
PROV.           : PROVINCE
UWI.      : UNIQUE WELL ID
API.            : API NUMBER
#==================================================================
~Curve
DEPT .m                   : DEPTH
Sonic_despiked .us/ft     : Sonic_despiked
RHOB_despiked .g/cm3      : RHOB_despiked
TWT .ms                   : TWT
~Parameter
#==================================================================
~Ascii
# ...
 450.64680000 64.048645020 2.4807543755 147.23730469
 450.79920000 64.008331299 2.4828758240 147.30372620
 450.95160000 63.968025208 2.4849972725 147.37014771
 451.10400000 63.927715302 2.4871184826 147.43656921
 451.25640000 63.887409210 2.4892396927 147.50299072
 451.40880000 63.847099304 2.4913611412 147.56941223
 451.56120000 63.806793213 2.5378370285 147.63583374
 451.71360000 63.766483307 2.5436546803 147.70225525
 451.86600000 63.612689972 2.5436749458 147.76867676
 452.01840000 63.697631836 2.5436949730 147.83508301
 452.17080000 63.782573700 2.5437152386 147.90150452
 452.32320000 63.867515564 2.5437355042 147.96792603
 452.47560000 63.952461243 2.5437557697 148.03434753
 452.62800000 64.037399292 2.5437757969 148.10076904
 452.78040000 64.122344971 2.5437960625 148.16719055
 452.93280000 64.207283020 2.5363759995 148.23361206
 453.08520000 64.292228699 2.4895191193 148.30003357
 453.23760000 63.608928680 2.4888703823 148.36645508
 453.39000000 63.608512878 2.4882216454 148.43287659
 453.54240000 63.608093262 2.4875729084 148.49929810
 453.69480000 63.607677460 2.4869241714 148.56571960
 453.84720000 63.607257843 2.4888730049 148.63214111
 453.99960000 63.606842041 2.4884889126 148.69856262
 454.15200000 63.606422424 2.4857108593 148.76498413
 454.30440000 63.606006622 2.4865071774 148.83140564
 454.45680000 63.605587006 2.4803798199 148.89782715
 454.60920000 63.605171204 2.4832158089 148.96424866
 454.76160000 63.604751587 2.4860520363 149.03067017
 454.91400000 63.604335785 2.4888880253 149.09709167
 455.06640000 63.603916168 2.4917240143 149.16349792
 455.21880000 63.603500366 2.5003731251 149.22991943
 455.37120000 63.603080750 2.4988830090 149.29634094
 455.52360000 63.602664948 2.4876379967 149.36276245
 455.67600000 63.602245331 2.4902238846 149.42918396
 455.82840000 63.601829529 2.4928100109 149.49560547
 455.98080000 63.601409912 2.4953961372 149.56202698
 456.13320000 63.600994110 2.4979820251 149.62844849
 456.28560000 63.600574493 2.5175709724 149.69487000
 456.43800000 62.943981171 2.5323379040 149.76129150
 456.59040000 62.921691895 2.5391321182 149.82771301
 456.74280000 62.899402618 2.5482840538 149.89413452
 456.89520000 62.877109528 2.5433330536 149.96055603
 457.04760000 62.854820251 2.5383818150 150.02697754
 457.20000000 63.046024323 2.5334308147 150.09339905
 457.35240000 63.289920807 2.5201420784 150.15982056
 457.50480000 63.078430176 2.5183789730 150.22624207
 457.65720000 62.866939545 2.5234122276 150.29266357
 457.80960000 62.655448914 2.5312051773 150.35908508
 457.96200000 63.081935883 2.5439009666 150.42549133
 458.11440000 63.029941559 2.5464341640 150.49191284
 458.26680000 62.977943420 2.5467665195 150.55833435
 458.41920000 62.925949097 2.5470991135 150.62475586
 458.57160000 62.873954773 2.5474314690 150.69117737
 458.72400000 62.821956635 2.5477638245 150.75759888
 458.87640000 62.769962311 2.5416421890 150.82402039
 459.02880000 62.717964172 2.5431330204 150.89044189
 459.18120000 62.665969849 2.5531060696 150.95686340
 459.33360000 62.613971710 2.5507957935 151.02328491
 459.48600000 62.561977386 2.5463600159 151.08970642
 459.63840000 62.509983063 2.5450100899 151.15612793
 459.79080000 62.457984924 2.5485491753 151.22254944
 459.94320000 62.405990601 2.5528831482 151.28897095
 460.09560000 62.353992462 2.5444068909 151.35539246
 460.24800000 62.301998138 2.5315821171 151.42181396
 460.40040000 62.250000000 2.5313575268 151.48823547
 460.55280000 62.198005676 2.5311329365 151.55465698
 460.70520000 62.042968750 2.5309083462 151.62107849
 460.85760000 61.887928009 2.5306837559 151.68750000
 461.01000000 61.971904755 2.5304594040 151.75390625
 461.16240000 62.055881500 2.5302348137 151.82032776
 461.31480000 62.139854431 2.5300102234 151.88674927
 461.46720000 62.223831177 2.5297856331 151.95317078
 461.61960000 62.307807922 2.5295610428 152.01959229
 461.77200000 62.391784668 2.5426158905 152.08601379
 461.92440000 62.475761414 2.5571918488 152.15243530
 462.07680000 62.559734344 2.5572509766 152.21885681
 462.22920000 62.643711090 2.5573101044 152.28527832
 462.38160000 62.727687836 2.5389661789 152.35169983
 462.53400000 63.065876007 2.5366523266 152.41812134
 462.68640000 63.010276794 2.5343384743 152.48454285
 462.83880000 62.954677582 2.5320248604 152.55096436
 462.99120000 62.899078369 2.5297110081 152.61738586
 463.14360000 62.843479156 2.5508959293 152.68380737
 463.29600000 62.787879944 2.5542538166 152.75022888
 463.44840000 62.732280731 2.5578701496 152.81665039
 463.60080000 62.676681519 2.5563731194 152.88307190
 463.75320000 62.621082306 2.5552928448 152.94949341
 463.90560000 62.565483093 2.5542125702 153.01591492
 464.05800000 62.509883881 2.5531322956 153.08232117
 464.21040000 62.454284668 2.5520517826 153.14874268
 464.36280000 62.398685455 2.5509715080 153.21516418
 464.51520000 62.987529755 2.5498912334 153.28158569
 464.66760000 63.063823700 2.5488109589 153.34800720
 464.82000000 63.047607422 2.5547251701 153.41442871
 464.97240000 62.866645813 2.5458850861 153.48085022
 465.12480000 63.062328339 2.5368468761 153.54727173
 465.27720000 63.258007050 2.5340309143 153.61369324
 465.42960000 63.453689575 2.5397019386 153.68011475
 465.58200000 64.316520691 2.5348200798 153.74653625
 465.73440000 64.964920044 2.5279500484 153.81295776
 465.88680000 64.986801147 2.5235238075 153.87937927
 466.03920000 64.442337036 2.5376541615 153.94580078
 466.19160000 63.278583527 2.5525200367 154.01222229
 466.34400000 63.441261292 2.5550439358 154.07864380
 466.49640000 63.603942871 2.5530886650 154.14506531
 466.64880000 63.766624451 2.5511333942 154.21148682
 466.80120000 63.929302216 2.5491781235 154.27790833
 466.95360000 65.953201294 2.5472228527 154.34432983
 467.10600000 65.989974976 2.5181469917 154.41073608
 467.25840000 66.026748657 2.4952590466 154.47715759
 467.41080000 66.063522339 2.4947738647 154.54357910
 467.56320000 66.100296021 2.4942889214 154.61000061
 467.71560000 66.137062073 2.4938039780 154.67642212
 467.86800000 66.173835754 2.4933187962 154.74284363
 468.02040000 66.210609436 2.4928336143 154.80926514
 468.17280000 66.247383118 2.4923486710 154.87568665
 468.32520000 66.284156799 2.5093269348 154.94210815
 468.47760000 66.256126404 2.5251460075 155.00852966
 468.63000000 66.286422729 2.5354309082 155.07495117
 468.78240000 66.316719055 2.5469951630 155.14137268
 468.93480000 66.347007751 2.5445280075 155.20779419
 469.08720000 66.377304077 2.5420610905 155.27421570
 469.23960000 66.407592773 2.5193719864 155.34063721
 469.39200000 66.437889099 2.5185859203 155.40705872
 469.54440000 66.468177795 2.5328710079 155.47348022
 469.69680000 66.498474121 2.5291929245 155.53990173
 469.84920000 66.528762817 2.5255150795 155.60632324
 470.00160000 66.559059143 2.5218369961 155.67272949
 470.15400000 66.589347839 2.5049510002 155.73915100
 470.30640000 66.619644165 2.4890029430 155.80557251
 470.45880000 67.375061035 2.4883439541 155.87199402
 470.61120000 67.459678650 2.4892480373 155.93841553
 470.76360000 67.544296265 2.4853601456 156.00483704
 470.91600000 67.628913879 2.4814724922 156.07125854
 471.06840000 67.713531494 2.4817013741 156.13768005
 471.22080000 67.798149109 2.4819300175 156.20410156
 471.37320000 67.882766724 2.4817008972 156.27052307
 471.52560000 67.967376709 2.4816961288 156.33694458
 471.67800000 68.051994324 2.4816915989 156.40336609
 471.83040000 68.136611938 2.4816868305 156.46978760
 471.98280000 68.221229553 2.4816820621 156.53620911
 472.13520000 68.305847168 2.4816772938 156.60263062
 472.28760000 68.390464783 2.4816727638 156.66905212
 472.44000000 68.475082397 2.4816679955 156.73547363
 472.59240000 68.559700012 2.4843201637 156.80189514
 472.74480000 68.265419006 2.4966690540 156.86831665
 472.89720000 68.291664124 2.5199351311 156.93473816
 473.04960000 68.585395813 2.5179212093 157.00114441
 473.20200000 68.643737793 2.5159070492 157.06756592
 473.35440000 69.108795166 2.5138931274 157.13398743
 473.50680000 69.100364685 2.5060791969 157.20040894
