# LAS format log file from PETREL
# Project units are specified as depth units
#==================================================================
~Version information
VERS.   2.0:
WRAP.   NO:
#==================================================================
~Well
STRT .m      197.51040000 :
STOP .m      951.89040000 :
STEP .m     0.15240000 :
NULL .        -999.250000 :
COMP.           : COMPANY
WELL.  P-135   : WELL
FLD.            : FIELD
LOC.            : LOCATION
SRVC.           : SERVICE COMPANY
DATE.  2014-09-16 16:30:35   : Log Export Date {yyyy-MM-dd HH:mm:ss}
PROV.           : PROVINCE
UWI.      : UNIQUE WELL ID
API.            : API NUMBER
#==================================================================
~Curve
DEPT .m                   : DEPTH
Sonic_despiked .us/ft     : Sonic_despiked
RHOB_despiked .g/cm3      : RHOB_despiked
TWT .ms                   : TWT
~Parameter
#==================================================================
~Ascii
# ...
 289.56000000 74.176406860 2.4881486893 75.718841553
 289.71240000 74.147453308 2.4892115593 75.788879395
 289.86480000 74.118499756 2.4902744293 75.858917236
 290.01720000 74.089546204 2.4913372993 75.928962708
 290.16960000 74.060592651 2.4924001694 75.999000549
 290.32200000 74.031631470 2.4934630394 76.069046021
 290.47440000 74.002677917 2.4945259094 76.139083862
 290.62680000 73.973724365 2.4764771461 76.209121704
 290.77920000 74.424781799 2.4659969807 76.279167175
 290.93160000 74.875839233 2.4549579620 76.349205017
 291.08400000 74.791061401 2.4466578960 76.419250488
 291.23640000 74.706291199 2.4452028275 76.489288330
 291.38880000 74.720344543 2.4534239769 76.559326172
 291.54120000 75.386268616 2.4566349983 76.629371643
 291.69360000 75.427398682 2.4478969574 76.699409485
 291.84600000 75.389511108 2.4489278793 76.769454956
 291.99840000 75.414512634 2.4499590397 76.839492798
 292.15080000 75.439506531 2.4509899616 76.909538269
 292.30320000 75.464508057 2.4520208836 76.979576111
 292.45560000 75.489501953 2.4530520439 77.049613953
 292.60800000 75.514503479 2.4540829659 77.119659424
 292.76040000 75.539497375 2.4644770622 77.189697266
 292.91280000 75.564498901 2.4652810097 77.259742737
 293.06520000 75.049774170 2.4605548382 77.329780579
 293.21760000 75.100311279 2.4592170715 77.399818420
 293.37000000 74.634613037 2.4601020813 77.469863892
 293.52240000 74.409393311 2.4622609615 77.539901733
 293.67480000 74.621955872 2.4590458870 77.609947205
 293.82720000 75.286483765 2.4547359943 77.679985046
 293.97960000 75.246345520 2.4560840130 77.750022888
 294.13200000 75.406814575 2.4701650143 77.820068359
 294.28440000 75.354377747 2.4705951214 77.890106201
 294.43680000 75.301940918 2.4710252285 77.960151672
 294.58920000 75.249511719 2.4714553356 78.030189514
 294.74160000 75.197074890 2.4718856812 78.100234985
 294.89400000 75.144638062 2.4723157883 78.170272827
 295.04640000 75.092201233 2.4727458954 78.240310669
 295.19880000 75.039764404 2.4731760025 78.310356140
 295.35120000 74.987335205 2.4776659012 78.380393982
 295.50360000 74.934898376 2.4758157730 78.450439453
 295.65600000 74.882461548 2.4739656448 78.520477295
 295.80840000 75.399780273 2.4721152782 78.590515137
 295.96080000 75.484916687 2.4702651501 78.660560608
 296.11320000 75.570060730 2.4684150219 78.730598450
 296.26560000 75.655197144 2.4615039825 78.800643921
 296.41800000 75.105590820 2.4616370201 78.870681763
 296.57040000 75.032043457 2.4643378258 78.940719604
 296.72280000 74.958496094 2.4561159611 79.010765076
 296.87520000 74.884948730 2.4530780315 79.080802917
 297.02760000 74.811401367 2.4500398636 79.150848389
 297.18000000 74.737854004 2.4470019341 79.220886230
 297.33240000 74.664306641 2.4721231461 79.290924072
 297.48480000 74.590759277 2.4847218990 79.360969543
 297.63720000 74.517211914 2.4850621223 79.429420471
 297.78960000 74.443672180 2.4679131508 79.497550964
 297.94200000 74.370124817 2.4517271519 79.565689087
 298.09440000 74.296577454 2.4504945278 79.633819580
 298.24680000 74.223030090 2.4492619038 79.701950073
 298.39920000 74.149482727 2.4465811253 79.770080566
 298.55160000 74.075935364 2.4494044781 79.838211060
 298.70400000 74.002388000 2.4522278309 79.906349182
 298.85640000 73.928840637 2.4550511837 79.974479675
 299.00880000 73.855293274 2.4578745365 80.042610168
 299.16120000 73.781745911 2.4606978893 80.110740662
 299.31360000 73.708198547 2.4635212421 80.178871155
 299.46600000 73.634651184 2.4663445950 80.247009277
 299.61840000 73.546936035 2.4691679478 80.315139771
 299.77080000 73.459220886 2.4788038731 80.383270264
 299.92320000 73.371505737 2.4775979519 80.451400757
 300.07560000 73.283790588 2.4761221409 80.519531250
 300.22800000 73.196075439 2.4777095318 80.587669373
 300.38040000 73.538330078 2.4792966843 80.655799866
 300.53280000 73.651138306 2.4808840752 80.723930359
 300.68520000 73.763946533 2.4589710236 80.792060852
 300.83760000 73.876754761 2.4592864513 80.860191345
 300.99000000 73.989555359 2.4596018791 80.928329468
 301.14240000 74.102363586 2.4599175453 80.996459961
 301.29480000 74.215171814 2.4602329731 81.064590454
 301.44720000 73.975051880 2.4862461090 81.132720947
 301.59960000 72.614181519 2.4863929749 81.200851440
 301.75200000 72.276435852 2.4778878689 81.268989563
 301.90440000 72.005157471 2.4663739204 81.337120056
 302.05680000 71.733886719 2.4709599018 81.405250549
 302.20920000 71.719474792 2.4835081100 81.473381042
 302.36160000 71.533821106 2.4923448563 81.541511536
 302.51400000 71.712364197 2.5004670620 81.609642029
 302.66640000 71.599548340 2.4953238964 81.677780151
 302.81880000 71.486732483 2.4917662144 81.745910645
 302.97120000 71.373916626 2.4788980484 81.814041138
 303.12360000 71.503181458 2.4718999863 81.882171631
 303.27600000 72.078948975 2.4545371532 81.950302124
 303.42840000 72.836410522 2.4556903839 82.018440247
 303.58080000 72.863761902 2.4568433762 82.086570740
 303.73320000 72.683471680 2.4579966068 82.154701233
 303.88560000 72.503173828 2.4591498375 82.222831726
 304.03800000 72.322883606 2.4844179153 82.290962219
 304.19040000 72.142593384 2.4789590836 82.359100342
 304.34280000 71.962295532 2.4666688442 82.427230835
 304.49520000 71.782005310 2.4556288719 82.495361328
 304.64760000 71.601715088 2.4588913918 82.563491821
 304.80000000 71.421424866 2.4621541500 82.631622314
 304.95240000 71.241127014 2.4572989941 82.699760437
 305.10480000 71.060836792 2.4576570988 82.767890930
 305.25720000 70.880546570 2.4704589844 82.836021423
 305.40960000 70.700248718 2.4839608669 82.904151917
 305.56200000 70.519958496 2.4822099209 82.972282410
 305.71440000 71.764404297 2.4755511284 83.040420532
 305.86680000 71.685882568 2.4789910316 83.108551025
 306.01920000 71.607360840 2.5013158321 83.176681519
 306.17160000 71.528831482 2.5019490719 83.244812012
 306.32400000 71.450309753 2.5025820732 83.312942505
 306.47640000 71.371780396 2.5032153130 83.381080627
 306.62880000 71.293258667 2.5038485527 83.449211121
 306.78120000 71.214729309 2.5044817924 83.517341614
 306.93360000 71.136207581 2.5051150322 83.585472107
 307.08600000 71.057678223 2.5057480335 83.653602600
 307.23840000 70.979156494 2.5063812733 83.721740723
 307.39080000 70.900627136 2.5070145130 83.789871216
 307.54320000 70.822105408 2.5076475143 83.858001709
 307.69560000 70.743576050 2.5082807541 83.926132202
 307.84800000 70.665054321 2.5089139938 83.994262695
 308.00040000 70.761650085 2.4890067577 84.062400818
 308.15280000 70.858238220 2.4880597591 84.130531311
 308.30520000 70.954833984 2.4871129990 84.198661804
 308.45760000 70.846084595 2.4781229496 84.266792297
 308.61000000 70.737342834 2.4766736031 84.334922791
 308.76240000 70.628593445 2.4752240181 84.403060913
 308.91480000 70.519851685 2.4737744331 84.471191406
 309.06720000 70.411102295 2.4723248482 84.539321899
 309.21960000 70.302360535 2.4822440147 84.607452393
 309.37200000 70.193611145 2.4978358746 84.675582886
 309.52440000 70.326202393 2.5017848015 84.743721008
 309.67680000 70.247619629 2.5084829330 84.811851501
 309.82920000 70.169044495 2.4946129322 84.879981995
 309.98160000 70.279899597 2.4857859612 84.948112488
 310.13400000 70.390747070 2.4821977615 85.016242981
 310.28640000 70.501602173 2.4786095619 85.084381104
 310.43880000 70.612457275 2.4750213623 85.152511597
 310.59120000 70.599731445 2.4714331627 85.220642090
 310.74360000 70.587005615 2.4745481014 85.288772583
 310.89600000 70.574279785 2.4703130722 85.356903076
 311.04840000 70.561553955 2.4685699940 85.425041199
 311.20080000 70.548828125 2.4736819267 85.493171692
 311.35320000 70.375907898 2.4839589596 85.561302185
 311.50560000 70.642189026 2.4905929565 85.629432678
 311.65800000 69.976104736 2.4982571602 85.697563171
 311.81040000 69.928764343 2.4992330074 85.765701294
 311.96280000 69.881431580 2.5030419827 85.833831787
 312.11520000 69.834091187 2.5038390160 85.901962280
 312.26760000 69.786758423 2.5029404163 85.970092773
 312.42000000 69.739418030 2.5020415783 86.038223267
