# LAS format log file from PETREL
# Project units are specified as depth units
#==================================================================
~Version information
VERS.   2.0:
WRAP.   YES:
#==================================================================
~Well
STRT .m      197.51040000 :
STOP .m      951.89040000 :
STEP .m     0.15240000 :
NULL .        -999.250000 :
COMP            .                Eastrock Resources LTD.   :COMPANY
WELL            .                Eastrock Lauren #1        :WELL NAME
FLD             .                        Lauren            :FIELD NAME
RIGN            .                    Foragaz #3            :Rig Name
RIGTYP          .                          Land            :Rig Type
SON             .                    BX61-00001            :Service Order Number
SRVC            .                  Schlumberger            :SERVICE COMPANY
DATE            .                    12/30/2011            :LOG DATE(Composite Date for Composite LAP) (MM/DD/YYYY)
CLAB            .                     Province:            :County Label
CNTY            .                   Nova Scotia            :COUNTY
SLAB            .                                          :State/Province Label
STAT            .                                          :STATE or PROVINCE
PROV            .                                          :STATE or PROVINCE
CTRY            .                        Canada            :COUNTRY
CONT_REGION     .                    N. America            :Continent Region
SECT            .                       -999.25            :Section
TOWN            .                    Springhill            :Township
RANG            .                       -999.25            :Range
API             .                        435655            :API NUMBER
UWI             .                       -999.25            :UNIQUE WELL ID
LUL             .                          CANS            :Logging Unit Location
LUN             .                          2316            :Logging Unit Number
LOC             .                    Springhill            :FIELD LOCATION
FL1             .                                          :Field Location Line 1
FL2             .                       -999.25            :Field Location Line 2
LATI            .deg             45∞ 39' 26.518" N         :LATITUDE
LONG            .deg             64∞ 0' 51.347" W          :LONGITUDE
PDAT            .                            GL            :Local Permanent Datum
LMF             .                            KB            :Logging Measured From
APD             .m                      4.00000            :Elevation of Depth Reference (LMF) Above Permanent Datum
EPD             .m                    119.00000            :Elevation of Permanent Datum (PDAT) above Mean Sea Level
EKB             .m                    123.00000            :Elevation of Kelly Bushing Above Permanent Datum
EDF             .m                    122.70000            :Elevation of Drill Floor Above Permanent Datum
EGL             .m                    119.00000            :Elevation of Ground Level Above Permanent Datum
ECF             .m                      -999.25            :Elevation of Casing Flange above Permanent Datum
#--------------------------------------------------
#==================================================================
~Curve
DEPT .m                   : DEPTH
CALI .in                  : Caliper
DT .us/ft                 : Delta-t P-sonic
DTS .us/ft                : Delta-t Shear-sonic
DPHI_SAN .m3/m3           : Density Porosity (Sandstone)
DPHI_LIM .m3/m3           : Density Porosity (Limestone)
DPHI_DOL .m3/m3           : Density Porosity (Dolomite)
NPHI_SAN .m3/m3           : Enhanced Thermal Neutron Porosity (Sandstone)
NPHI_LIM .m3/m3           : Enhanced Thermal Neutron Porosity (Limestone)
NPHI_DOL .m3/m3           : Enhanced Thermal Neutron Porosity (Dolomite)
AMF .ohm.m                : Array Induction Mud Resistivity Fully Calibrated
AF90 .ohm.m               : Array Induction Four Foot Resistivity A90
AF10 .ohm.m               : Array Induction Four Foot Resistivity A10
AF20 .ohm.m               : Array Induction Four Foot Resistivity A20
AF60 .ohm.m               : Array Induction Four Foot Resistivity A60
AF30 .ohm.m               : Array Induction Four Foot Resistivity A30
RXOZ .ohm.m               : Invaded Formation Resistivity filtered at 18 inches
GR .gAPI                  : Gamma Ray
POTA .gAPI                : POTA (percent)
THOR .gAPI                : THOR (percent)
URAN .gAPI                : URAN (percent)
SP .mV                    : SP
RHOB .g/cm3               : RHOB
~Parameter
#==================================================================
~Ascii
# ...
 592.53120000
 6.3677678108 59.631099701 104.36086273 0.0505799986 0.0838899985 0.1518500000
 0.0996799991 0.0592099987 0.0174199995 1.4410899878 43.145339966 56.415950775
 51.651241302 42.702098846 48.826808929 83.124443054 152.99510193 3.3052101135
 20.425699234 4.1229600906 -414.3717041 2.5665409565
 592.68360000
 6.3677678108 58.862152100 102.93126678 0.0484500006 0.0818400010 0.1567800045
 0.0994300023 0.0589499995 0.0173099991 1.4416799545 45.773059845 60.223030090
 54.996849060 45.327548981 52.262588501 63.971858978 153.50199890 3.3310997486
 19.884840012 4.3017997742 -413.9270935 2.5700550079
 592.83600000
 6.3601694107 58.273769379 102.64118958 0.0505100004 0.0838200003 0.1463900059
 0.0994099975 0.0589400008 0.0173000004 1.4422600269 47.061370850 61.546901703
 56.961170197 47.328529358 54.428600311 75.820350647 154.99169922 3.3822302818
 20.769710541 3.9872102737 -413.6770935 2.5666620731
 592.98840000
 6.3677678108 58.335762024 102.55096436 0.0518799983 0.0851399973 0.1509799957
 0.1015999988 0.0611100011 0.0182900000 1.4412200451 47.339321136 61.334079742
 57.399738312 48.551811218 55.219348907 79.551162720 155.52780151 3.4714899063
 20.504640579 3.9462702274 -414.6423950 2.5644030571
 593.14080000
 6.3677678108 58.434886932 103.02504730 0.0504899994 0.0838000029 0.1441799998
 0.1032299995 0.0627200007 0.0190399997 1.4401799440 47.018169403 60.173618317
 55.857761383 48.758480072 54.251941681 74.712936401 154.97419739 3.6317300797
 21.116310120 3.1993799210 -415.4930115 2.5666990280
 593.29320000
 6.3791728020 58.660251617 102.95056152 0.0438899994 0.0774400011 0.1457400024
 0.1066600010 0.0661299974 0.0206499994 1.4404100180 46.757560730 59.076129913
 54.396678925 48.747631073 53.493160248 56.657081604 152.19599915 3.5835797787
 21.001821518 2.9623100758 -415.7048950 2.5775759220
 593.44560000
 6.3677678108 59.138637543 103.02645874 0.0416899994 0.0753099993 0.1479900032
 0.1053500026 0.0648299977 0.0200299993 1.4406499863 46.591869354 57.918640137
 53.295249939 49.086219788 52.859470367 64.456306458 153.64840698 3.6297299862
 20.416790009 3.1621100903 -415.8020935 2.5812189579
 593.59800000
 6.3677678108 59.024490356 103.30330658 0.0461400002 0.0796099976 0.1430500001
 0.1037599966 0.0632499978 0.0192900002 1.4395400286 47.207210541 57.465530396
 52.517280579 49.396858215 52.428951263 79.495758057 152.97120667 3.6932201385
 20.244421005 3.1147999763 -415.8229065 2.5738730431
 593.75040000
 6.3677678108 59.015956879 103.35404968 0.0482399985 0.0816399977 0.1429899931
 0.0993100032 0.0588399991 0.0172499996 1.4384399652 48.407730103 57.258419037
 52.605789185 49.908130646 52.686489105 78.278167725 154.54370117 3.7332098484
 20.196750641 3.0520000458 -415.9167175 2.5703978539
 593.90280000
 6.3829722404 58.715175629 103.01535797 0.0473599993 0.0807899982 0.1495900005
 0.0983999968 0.0579300001 0.0168399997 1.4379299879 49.941440582 57.360488892
 53.454528809 50.517681122 53.492210388 56.793369293 155.11639404 3.5971999168
 19.452920914 3.7073199749 -415.7153015 2.5718541145
 594.05520000
 6.3981771469 58.422386169 103.18733215 0.0423500016 0.0759499967 0.1424899995
 0.1004400030 0.0599600002 0.0177699998 1.4374300241 51.445701599 58.503448486
 54.937229156 51.128719330 54.677188873 57.023918152 154.77980042 3.5767900944
 18.995340347 3.9212300777 -415.9756775 2.5801210403
 594.20760000
 6.4057798386 58.331676483 103.98560333 0.0421800017 0.0757900029 0.1505600065
 0.1106799990 0.0701100007 0.0225699991 1.4371800423 52.733409882 60.175960541
 57.022201538 51.920261383 56.318370819 54.770221710 153.52040100 3.6348700523
 18.587209702 3.5616500378 -416.8309021 2.5803978443
 594.36000000
 6.4513897896 58.383617401 103.87452698 0.0423099995 0.0759100020 0.1420799941
 0.1227200031 0.0820600018 0.0286800005 1.4369299412 54.180629730 62.756038666
 59.938541412 53.831459045 58.793949127 58.023689270 150.46940613 3.5991697311
 18.057540894 3.5504298210 -418.7082825 2.5801889896
 594.51240000
 6.4513897896 58.825485229 104.13757324 0.0460899994 0.0795599967 0.1372700036
 0.1248399988 0.0841699988 0.0298100002 1.4389799833 57.252361298 66.652717590
 64.214546204 57.198230743 62.989479065 64.543212891 150.08250427 3.5914902687
 17.608230591 3.7937099934 -419.6842041 2.5739560127
 594.66480000
 6.4361853600 58.605331421 103.84511566 0.0475400016 0.0809599981 0.1463900059
 0.1156599969 0.0750600025 0.0250400007 1.4410200119 59.683898926 71.380821228
 68.654197693 59.584178925 66.826896667 97.842468262 151.70779419 3.6064100266
 18.083499908 3.7392699718 -419.6214905 2.5715610981
 594.81720000
 6.4437870979 58.815731049 103.11786652 0.0468199998 0.0802600011 0.1541800052
 0.1050399989 0.0645300001 0.0198899992 1.4414399862 63.215770721 76.315361023
 73.243133545 63.916770935 71.572067261 132.71710205 157.51829529 3.6856799126
 19.554819107 3.7352299690 -418.8713074 2.5727469921
 594.96960000
 6.3677678108 58.780860901 102.18636322 0.0393100008 0.0730099976 0.1438300014
 0.0989999995 0.0585299991 0.0171099994 1.4418499470 66.305862427 80.441703796
 76.853210449 67.939102173 75.563247681 113.10500336 161.85409546 3.6989498138
 20.021051407 4.2048501968 -418.4375000 2.5851459503
 595.12200000
 6.3677678108 58.208755493 101.38513947 0.0364100002 0.0702200010 0.1270200014
 0.0988499969 0.0583899990 0.0170499999 1.4398100376 68.207069397 83.043899536
 78.806671143 70.674873352 77.993980408 100.71530151 157.89250183 3.6218400002
 19.797821045 4.0912799835 -417.3786926 2.5899310112
 595.27440000
 6.3791728020 57.814430237 100.83000183 0.0350000001 0.0688600019 0.1434099972
 0.1014100015 0.0609299988 0.0182099994 1.4377700090 68.086593628 82.315933228
 77.946456909 70.158912659 77.546913147 109.36209869 152.43350220 3.4690201283
 19.342720032 3.8634397984 -417.2813110 2.5922479630
 595.42680000
 6.4589881897 57.538436890 100.20717621 0.0339599997 0.0678500012 0.1361699998
 0.1084399968 0.0678900033 0.0214900002 1.4363900423 66.726959229 80.134666443
 74.899116516 69.018188477 75.695632935 103.05560303 153.49479675 3.4984498024
 19.131349564 4.0140500069 -418.3646240 2.5939719677
 595.57920000
 6.4817953110 57.560688019 101.09408569 0.0336400010 0.0675500035 0.1335899979
 0.1151800007 0.0745799989 0.0248000007 1.4350099564 66.301940918 79.075843811
 73.879737854 68.517486572 74.875770569 90.789360046 153.20179749 3.6096401215
 19.543930054 3.5023300648 -419.1632080 2.5944910049
 595.73160000
 6.5274057388 58.332046509 102.09425354 0.0320000015 0.0659700036 0.1404300034
 0.1177499965 0.0771400034 0.0261000004 1.4352899790 65.092117310 77.195190430
 72.213020325 67.320846558 73.418449402 79.366836548 153.75669861 3.5974302292
 20.138759613 3.2685799599 -419.7049255 2.5971941948
 595.88400000
 6.5274057388 58.273155212 102.35437012 0.0330200009 0.0669500008 0.1431200057
 0.1136299968 0.0730400011 0.0240199994 1.4355599880 64.416572571 76.752113342
 70.946716309 66.141822815 72.164260864 80.736976624 148.76719666 3.5384700298
 19.560609818 2.9832699299 -420.0173950 2.5955190659
 596.03640000
 6.5159997940 58.351371765 102.94546509 0.0386999995 0.0724299997 0.1420300007
 0.1097500026 0.0692000017 0.0221200008 1.4349100590 65.694999695 76.893096924
 71.591346741 67.113029480 72.828010559 90.073188782 152.34530640 3.5753202438
 20.883300781 2.8385701180 -419.5694885 2.5861399174
 596.18880000
 6.5198030472 58.432476044 103.09287262 0.0520900004 0.0853499994 0.1404200047
 0.1073699966 0.0668400005 0.0209800005 1.4342600107 66.610160828 77.134971619
 73.275901794 67.786743164 73.426208496 68.518501282 151.50030518 3.5423598289
 21.018180847 2.7393801212 -419.2082825 2.5640470982
 596.34120000
 6.5045986176 58.794517517 103.40296936 0.0632999986 0.0961700007 0.1610800028
 0.1120299995 0.0714600012 0.0232400000 1.4339799881 68.199302673 77.636482239
 73.699783325 68.897132874 74.295059204 60.107769012 148.70599365 3.5484001637
 20.127691269 2.6544702053 -418.5625000 2.5455520153
 596.49360000
 6.5198030472 58.352741241 102.63164520 0.0600199997 0.0930000022 0.1529799998
 0.1179800034 0.0773599967 0.0262199994 1.4336999655 68.444808960 77.984466553
 74.902931213 69.235366821 75.129356384 56.487251282 146.65469360 3.5169501305
 19.059099197 2.9947500229 -417.4721985 2.5509741306
