# LAS format log file from PETREL
# Project units are specified as depth units
#==================================================================
~Version information
VERS.   2.0:
WRAP.   NO:
#==================================================================
~Well
STRT .m      197.51040000 :
STOP .m      951.89040000 :
STEP .m     0.15240000 :
NULL .        -999.250000 :
COMP.           : COMPANY
WELL.  P-135   : WELL
FLD.            : FIELD
LOC.            : LOCATION
SRVC.           : SERVICE COMPANY
DATE.  2014-09-16 16:30:35   : Log Export Date {yyyy-MM-dd HH:mm:ss}
PROV.           : PROVINCE
UWI.      : UNIQUE WELL ID
API.            : API NUMBER
#==================================================================
~Curve
DEPT .m                   : DEPTH
Sonic_despiked .us/ft     : Sonic_despiked
RHOB_despiked .g/cm3      : RHOB_despiked
TWT .ms                   : TWT
~Parameter
#==================================================================
~Ascii
# ...
 542.69640000 61.723564148 2.5356087685 186.16024780
 542.84880000 61.716457367 2.5369269848 186.22264099
 543.00120000 61.709350586 2.5388228893 186.28503418
 543.15360000 61.702243805 2.5458600521 186.34741211
 543.30600000 61.695133209 2.5536649227 186.40980530
 543.45840000 61.688026428 2.5584070683 186.47219849
 543.61080000 61.680919647 2.5508029461 186.53459167
 543.76320000 61.673812866 2.5567858219 186.59698486
 543.91560000 61.666706085 2.5540168285 186.65936279
 544.06800000 61.659599304 2.5512478352 186.72175598
 544.22040000 61.652492523 2.5484788418 186.78414917
 544.37280000 61.645385742 2.5457098484 186.84654236
 544.52520000 61.638278961 2.5455775261 186.90892029
 544.67760000 61.631172180 2.5433359146 186.97131348
 544.83000000 61.897537231 2.5410943031 187.03370667
 544.98240000 61.851917267 2.5388526917 187.09609985
 545.13480000 61.806293488 2.5366110802 187.15849304
 545.28720000 61.760673523 2.5470068455 187.22087097
 545.43960000 61.715049744 2.5460288525 187.28326416
 545.59200000 61.697792053 2.5450510979 187.34565735
 545.74440000 61.680534363 2.5440731049 187.40805054
 545.89680000 61.663276672 2.5485479832 187.47042847
 546.04920000 61.646018982 2.5382242203 187.53282166
 546.20160000 61.628761292 2.5378746986 187.59521484
 546.35400000 61.611503601 2.5375249386 187.65760803
 546.50640000 61.642784119 2.5504021645 187.71998596
 546.65880000 61.674060822 2.5534079075 187.78237915
 546.81120000 61.705341339 2.5547208786 187.84477234
 546.96360000 61.736621857 2.5533220768 187.90716553
 547.11600000 61.767898560 2.5557279587 187.96955872
 547.26840000 61.799179077 2.5541009903 188.03193665
 547.42080000 61.830455780 2.5526080132 188.09432983
 547.57320000 61.861736298 2.5504109859 188.15672302
 547.72560000 61.893013000 2.5467820168 188.21911621
 547.87800000 61.924293518 2.5438988209 188.28149414
 548.03040000 61.973052979 2.5449221134 188.34388733
 548.18280000 62.021812439 2.5543570518 188.40628052
 548.33520000 62.070571899 2.5579454899 188.46867371
 548.48760000 62.080474854 2.5615339279 188.53106689
 548.64000000 62.047767639 2.5498020649 188.59344482
 548.79240000 61.963764191 2.5394351482 188.65583801
 548.94480000 61.975944519 2.5376009941 188.71823120
 549.09720000 61.988124847 2.5523660183 188.78062439
 549.24960000 62.000305176 2.5646488667 188.84300232
 549.40200000 62.012485504 2.5631554127 188.90539551
 549.55440000 62.024665833 2.5616621971 188.96778870
 549.70680000 62.036849976 2.5483829975 189.03018188
 549.85920000 62.049030304 2.5478723049 189.09255981
 550.01160000 62.061210632 2.5473618507 189.15495300
 550.16400000 62.073390961 2.5468511581 189.21734619
 550.31640000 62.085571289 2.5515680313 189.27973938
 550.46880000 62.038196564 2.5526058674 189.34213257
 550.62120000 61.990818024 2.5512838364 189.40451050
 550.77360000 61.943439484 2.5518429279 189.46690369
 550.92600000 61.959991455 2.5612750053 189.52929688
 551.07840000 61.976547241 2.5660271645 189.59169006
 551.23080000 61.993099213 2.5732228756 189.65406799
 551.38320000 62.009651184 2.5658831596 189.71646118
 551.53560000 62.026206970 2.5567519665 189.77885437
 551.68800000 62.042758942 2.5538048744 189.84124756
 551.84040000 62.059310913 2.5565390587 189.90364075
 551.99280000 62.075862885 2.5569450855 189.96601868
 552.14520000 62.092418671 2.5517508984 190.02841187
 552.29760000 62.108970642 2.5496180058 190.09080505
 552.45000000 62.125522614 2.5493731499 190.15319824
 552.60240000 62.142078400 2.5492110252 190.21557617
 552.75480000 62.158630371 2.5511531830 190.27796936
 552.90720000 62.136337280 2.5560739040 190.34036255
 553.05960000 62.114040375 2.5593509674 190.40275574
 553.21200000 62.091747284 2.5606489182 190.46513367
 553.36440000 62.069454193 2.5616040230 190.52752686
 553.51680000 62.047161102 2.5655491352 190.58992004
 553.66920000 61.816181183 2.5773329735 190.65231323
 553.82160000 61.767803192 2.5782344341 190.71470642
 553.97400000 61.719421387 2.5791358948 190.77708435
 554.12640000 61.729740143 2.5800373554 190.83947754
 554.27880000 61.740058899 2.5809388161 190.90187073
 554.43120000 61.750377655 2.5818405151 190.96426392
 554.58360000 61.760696411 2.5827419758 191.02664185
 554.73600000 61.771011353 2.5836434364 191.08903503
 554.88840000 61.781330109 2.5845448971 191.15142822
 555.04080000 61.791648865 2.5756440163 191.21382141
 555.19320000 61.801967621 2.5719718933 191.27621460
 555.34560000 61.812286377 2.5620620251 191.33859253
 555.49800000 61.822605133 2.5614891052 191.40098572
 555.65040000 61.832923889 2.5673220158 191.46337891
 555.80280000 61.843242645 2.5720148087 191.52577209
 555.95520000 61.853561401 2.5664629936 191.58815002
 556.10760000 61.863880157 2.5648207664 191.65054321
 556.26000000 61.874195099 2.5631785393 191.71293640
 556.41240000 61.884513855 2.5615363121 191.77532959
 556.56480000 61.894832611 2.5598940849 191.83770752
 556.71720000 61.905151367 2.5734798908 191.90010071
 556.86960000 61.915470123 2.5764718056 191.96249390
 557.02200000 61.925788879 2.5723559856 192.02488708
 557.17440000 61.845741272 2.5740759373 192.08728027
 557.32680000 61.851757050 2.5771961212 192.14965820
 557.47920000 61.857772827 2.5863959789 192.21205139
 557.63160000 61.863788605 2.5866403580 192.27444458
 557.78400000 61.869804382 2.5868849754 192.33683777
 557.93640000 61.875816345 2.5871293545 192.39921570
 558.08880000 61.881832123 2.5873737335 192.46160889
 558.24120000 61.887847900 2.5866489410 192.52400208
 558.39360000 61.893863678 2.5852179527 192.58639526
 558.54600000 61.899879456 2.5841319561 192.64878845
 558.69840000 61.905895233 2.5830459595 192.71116638
 558.85080000 61.911911011 2.5819599628 192.77355957
 559.00320000 61.917922974 2.5808739662 192.83595276
 559.15560000 61.923938751 2.5797879696 192.89834595
 559.30800000 61.929954529 2.5787019730 192.96072388
 559.46040000 61.935970306 2.5776159763 193.02311707
 559.61280000 61.950691223 2.5765299797 193.08551025
 559.76520000 62.064716339 2.5732820034 193.14790344
 559.91760000 62.210323334 2.5685229301 193.21028137
 560.07000000 62.372749329 2.5720472336 193.27267456
 560.22240000 62.273197174 2.5677759647 193.33506775
 560.37480000 62.319831848 2.5654339790 193.39746094
 560.52720000 62.101688385 2.5652575493 193.45985413
 560.67960000 62.426788330 2.5650813580 193.52223206
 560.83200000 62.107452393 2.5649049282 193.58462524
 560.98440000 62.128734589 2.5708930492 193.64701843
 561.13680000 62.150016785 2.5628740788 193.70941162
 561.28920000 62.171298981 2.5630588531 193.77178955
 561.44160000 62.192581177 2.5632436275 193.83418274
 561.59400000 62.213863373 2.5634286404 193.89657593
 561.74640000 62.235145569 2.5636134148 193.95896912
 561.89880000 62.256427765 2.5637981892 194.02136230
 562.05120000 62.277709961 2.5656559467 194.08374023
 562.20360000 62.104949951 2.5674860477 194.14613342
 562.35600000 62.157684326 2.5761809349 194.20852661
 562.50840000 62.407768250 2.5785958767 194.27091980
 562.66080000 62.224311829 2.5754029751 194.33329773
 562.81320000 62.278533936 2.5737080574 194.39569092
 562.96560000 62.332756042 2.5769569874 194.45808411
 563.11800000 62.343296051 2.5779330730 194.52047729
 563.27040000 62.353839874 2.5727090836 194.58287048
 563.42280000 62.364379883 2.5671970844 194.64524841
 563.57520000 62.374919891 2.5740690231 194.70764160
 563.72760000 62.385463715 2.5769209862 194.77003479
 563.88000000 62.396003723 2.5777919292 194.83242798
 564.03240000 62.520359039 2.5761559010 194.89480591
 564.18480000 62.516628265 2.5741579533 194.95719910
 564.33720000 62.512897491 2.5725619793 195.01959229
 564.48960000 62.509166718 2.5685229301 195.08198547
 564.64200000 62.505435944 2.5635890961 195.14436340
 564.79440000 62.501705170 2.5636100769 195.20675659
 564.94680000 62.497974396 2.5636310577 195.26914978
 565.09920000 62.494247437 2.5636520386 195.33154297
 565.25160000 62.490516663 2.5653951168 195.39393616
 565.40400000 62.486785889 2.5678129196 195.45631409
 565.55640000 62.483055115 2.5684070587 195.51870728
