# LAS format log file from PETREL
# Project units are specified as depth units
#==================================================================
~Version information
VERS.   2.0:
WRAP.   YES:
#==================================================================
~Well
STRT .m      197.51040000 :
STOP .m      951.89040000 :
STEP .m     0.15240000 :
NULL .        -999.250000 :
COMP            .                Eastrock Resources LTD.   :COMPANY
WELL            .                Eastrock Lauren #1        :WELL NAME
FLD             .                        Lauren            :FIELD NAME
RIGN            .                    Foragaz #3            :Rig Name
RIGTYP          .                          Land            :Rig Type
SON             .                    BX61-00001            :Service Order Number
SRVC            .                  Schlumberger            :SERVICE COMPANY
DATE            .                    12/30/2011            :LOG DATE(Composite Date for Composite LAP) (MM/DD/YYYY)
CLAB            .                     Province:            :County Label
CNTY            .                   Nova Scotia            :COUNTY
SLAB            .                                          :State/Province Label
STAT            .                                          :STATE or PROVINCE
PROV            .                                          :STATE or PROVINCE
CTRY            .                        Canada            :COUNTRY
CONT_REGION     .                    N. America            :Continent Region
SECT            .                       -999.25            :Section
TOWN            .                    Springhill            :Township
RANG            .                       -999.25            :Range
API             .                        435655            :API NUMBER
UWI             .                       -999.25            :UNIQUE WELL ID
LUL             .                          CANS            :Logging Unit Location
LUN             .                          2316            :Logging Unit Number
LOC             .                    Springhill            :FIELD LOCATION
FL1             .                                          :Field Location Line 1
FL2             .                       -999.25            :Field Location Line 2
LATI            .deg             45∞ 39' 26.518" N         :LATITUDE
LONG            .deg             64∞ 0' 51.347" W          :LONGITUDE
PDAT            .                            GL            :Local Permanent Datum
LMF             .                            KB            :Logging Measured From
APD             .m                      4.00000            :Elevation of Depth Reference (LMF) Above Permanent Datum
EPD             .m                    119.00000            :Elevation of Permanent Datum (PDAT) above Mean Sea Level
EKB             .m                    123.00000            :Elevation of Kelly Bushing Above Permanent Datum
EDF             .m                    122.70000            :Elevation of Drill Floor Above Permanent Datum
EGL             .m                    119.00000            :Elevation of Ground Level Above Permanent Datum
ECF             .m                      -999.25            :Elevation of Casing Flange above Permanent Datum
#--------------------------------------------------
#==================================================================
~Curve
DEPT .m                   : DEPTH
CALI .in                  : Caliper
DT .us/ft                 : Delta-t P-sonic
DTS .us/ft                : Delta-t Shear-sonic
DPHI_SAN .m3/m3           : Density Porosity (Sandstone)
DPHI_LIM .m3/m3           : Density Porosity (Limestone)
DPHI_DOL .m3/m3           : Density Porosity (Dolomite)
NPHI_SAN .m3/m3           : Enhanced Thermal Neutron Porosity (Sandstone)
NPHI_LIM .m3/m3           : Enhanced Thermal Neutron Porosity (Limestone)
NPHI_DOL .m3/m3           : Enhanced Thermal Neutron Porosity (Dolomite)
AMF .ohm.m                : Array Induction Mud Resistivity Fully Calibrated
AF90 .ohm.m               : Array Induction Four Foot Resistivity A90
AF10 .ohm.m               : Array Induction Four Foot Resistivity A10
AF20 .ohm.m               : Array Induction Four Foot Resistivity A20
AF60 .ohm.m               : Array Induction Four Foot Resistivity A60
AF30 .ohm.m               : Array Induction Four Foot Resistivity A30
RXOZ .ohm.m               : Invaded Formation Resistivity filtered at 18 inches
GR .gAPI                  : Gamma Ray
POTA .gAPI                : POTA (percent)
THOR .gAPI                : THOR (percent)
URAN .gAPI                : URAN (percent)
SP .mV                    : SP
RHOB .g/cm3               : RHOB
~Parameter
#==================================================================
~Ascii
# ...
 736.54920000
 6.4817953110 60.783763885 105.01110077 0.0556900017 0.0888200030 0.1570699960
 0.1467899978 0.1059399992 0.0424900018 1.4012500048 32.160911560 30.826129913
 30.492860794 31.973630905 31.345930099 34.232059479 135.22109985 3.0878498554
 16.715391159 3.5319998264 -437.3166809 2.5581169128
 736.70160000
 6.4893937111 61.075641632 105.95110321 0.0534100011 0.0866300017 0.1590099931
 0.1484899968 0.1076299995 0.0435599983 1.4034399986 31.714639664 29.589790344
 29.499839783 31.230840683 30.533500671 28.966850281 134.09700012 3.0080101490
 16.985158920 3.3783898354 -438.3046875 2.5618679523
 736.85400000
 6.4931969643 61.947124481 107.33267212 0.0506700017 0.0839800015 0.1512600034
 0.1467099935 0.1058600023 0.0424400009 1.4036999941 31.361539841 28.752109528
 28.713640213 30.588699341 29.819860458 29.757030487 134.53640747 2.9101400375
 16.766269684 3.8251299858 -439.5166931 2.5664021969
 737.00640000
 6.4589881897 61.891468048 108.11914063 0.0471599996 0.0805900022 0.1525499970
 0.1410100013 0.1001999974 0.0389700010 1.4039599895 30.623239517 27.796300888
 28.017810822 29.570430756 28.985609055 35.293140411 135.05050659 2.8422701359
 16.393650055 4.1018500328 -439.5957947 2.5721850395
 737.15880000
 6.4209799767 61.571216583 107.89594269 0.0492799990 0.0826399997 0.1534100026
 0.1358100027 0.0950499997 0.0359099992 1.4044599533 30.289880753 27.098590851
 27.473339081 28.957460403 28.335020065 37.060199738 136.44470215 2.8919301033
 16.267910004 4.2117099762 -438.3999939 2.5686919689
 737.31120000
 6.4817953110 61.339782715 106.96215057 0.0548000000 0.0879700035 0.1503099948
 0.1256999969 0.0850199983 0.0302700009 1.4049600363 30.390569687 26.691240311
 27.466339111 28.837869644 28.139259338 51.318439484 138.92779541 2.9437198639
 16.363458633 4.3857097626 -437.9499817 2.5595738888
 737.46360000
 6.4931969643 61.005199432 106.12970734 0.0593000017 0.0923099965 0.1533399969
 0.1215900034 0.0809400007 0.0280900002 1.4018299580 30.350759506 26.125619888
 27.176940918 28.481100082 27.857929230 58.199508667 140.11509705 2.9347500801
 16.738201141 4.4460196495 -438.2250061 2.5521569252
 737.61600000
 6.5122003555 61.360172272 105.74027252 0.0577000007 0.0907600001 0.1576399952
 0.1301500052 0.0894299969 0.0326999985 1.3986899853 30.436389923 25.664190292
 26.929889679 28.511320114 27.588869095 45.995109558 139.31449890 2.9017801285
 17.035350800 4.2650098801 -439.1601868 2.5548009872
 737.76840000
 6.5502085686 61.854373932 106.27309418 0.0553399995 0.0884800032 0.1564200073
 0.1454599947 0.1046200022 0.0416699983 1.3985500336 30.088560104 25.345300674
 26.624170303 28.536569595 27.353559494 26.906290054 135.63240051 2.8723099232
 17.203180313 3.7622599602 -440.0208130 2.5586969852
 737.92080000
 6.5730161667 62.133632660 107.60266113 0.0564699993 0.0895799994 0.1619600058
 0.1590200067 0.1180799976 0.0504299998 1.3983999491 29.795520782 25.095939636
 26.377609253 28.621959686 27.020410538 23.585189819 134.77960205 2.8956899643
 17.220270157 3.5672898293 -439.3666992 2.5568180084
 738.07320000
 6.5730161667 62.522590637 107.82071686 0.0613900013 0.0943299979 0.1650100052
 0.1528200060 0.1119199991 0.0463199988 1.3995699883 29.659219742 25.139820099
 26.204620361 28.640159607 27.050779343 23.780809402 137.46989441 3.0561399460
 17.112079620 3.6490499973 -438.7226868 2.5487008095
 738.22560000
 6.5198030472 62.390640259 109.35297394 0.0616299994 0.0945499986 0.1624100059
 0.1464699954 0.1056300029 0.0423000008 1.4007300138 29.618509293 25.078479767
 26.347019196 28.834230423 27.201160431 26.798349380 141.23699951 3.1567902565
 17.988220215 3.6178200245 -439.8708191 2.5483160019
 738.37800000
 6.4817953110 61.909481049 109.35081482 0.0567400008 0.0898400024 0.1570799947
 0.1361799985 0.0954200029 0.0361299999 1.4003200531 29.137939453 24.657800674
 25.917310715 28.580949783 26.895389557 25.190139771 145.18949890 3.3322498798
 17.909481049 3.8793799877 -440.7041931 2.5563712120
 738.53040000
 6.4361853600 61.720046997 110.09354401 0.0558100007 0.0889400020 0.1629199982
 0.1316000074 0.0908700004 0.0335099995 1.3999099731 27.860589981 23.531799316
 24.575290680 27.036569595 25.503179550 31.560859680 143.16929626 3.3238899708
 17.990119934 3.5784800053 -442.0390930 2.5579099655
 738.68280000
 6.4589881897 61.647750854 109.58697510 0.0556700006 0.0887999982 0.1551200002
 0.1377100050 0.0969299972 0.0370200016 1.3986500502 25.967529297 21.612949371
 22.715169907 24.892160416 23.453079224 32.691070557 141.14079285 3.3752698898
 18.560668945 3.0305800438 -445.2416992 2.5581488609
 738.83520000
 6.5122003555 62.597049713 109.72714996 0.0626299977 0.0955199972 0.1534599960
 0.1456100047 0.1047699973 0.0417600013 1.3973900080 24.308679581 20.388540268
 21.120000839 22.926950455 21.616100311 37.711341858 136.23530579 3.2972898483
 18.506120682 2.6349601746 -445.6000061 2.5466539860
 738.98760000
 6.5502085686 63.451282501 110.96996307 0.0609299988 0.0938799977 0.1556600034
 0.1567299962 0.1158099994 0.0488899983 1.3971600533 23.118869781 19.437189102
 20.128990173 21.668710709 20.403060913 31.122430801 136.64599609 3.3024799824
 18.818609238 2.5479600430 -446.6875000 2.5494642258
 739.14000000
 6.5502085686 62.865825653 110.70649719 0.0611499995 0.0940899998 0.1580500007
 0.1534399986 0.1125399992 0.0467300005 1.3969399929 22.841609955 19.393039703
 20.160900116 21.482419968 20.258100510 28.574859619 138.59280396 3.3968799114
 19.634309769 2.2445499897 -446.0332947 2.5491011143
 739.29240000
 6.5578107834 62.684226990 111.58249664 0.0559899993 0.0891200006 0.1517200023
 0.1440200061 0.1031899974 0.0407899991 1.3978999853 23.740800858 20.978130341
 21.499370575 22.485790253 21.476940155 22.009649277 139.68789673 3.4370799065
 19.741041183 2.3339300156 -443.9666748 2.5576088428
 739.44480000
 6.5958189964 62.776790619 108.95728302 0.0531600006 0.0863799974 0.1701399982
 0.1331499964 0.0924099982 0.0343899988 1.3988599777 25.988510132 23.612890244
 24.466180801 25.060440063 24.105569839 20.054880142 138.98609924 3.4051101208
 19.247848511 2.5099000931 -441.6070862 2.5622889996
 739.59720000
 6.4437870979 62.145732880 108.16434479 0.0509499982 0.0842500031 0.1556199938
 0.1270699948 0.0863799974 0.0310100000 1.3995100260 28.272960663 26.129459381
 27.265689850 27.561590195 26.805650711 23.650880814 138.23449707 3.4041099548
 19.726350784 2.2804100513 -440.2167053 2.5659370422
 739.74960000
 6.4475865364 60.918060303 107.01491547 0.0562000014 0.0893199965 0.1542399973
 0.1309099942 0.0901900008 0.0331300013 1.4001599550 30.760110855 29.421239853
 30.571630478 30.431299210 29.907419205 31.004489899 138.37219238 3.4014098644
 20.192359924 2.0165100098 -439.5982056 2.5572659969
 739.90200000
 6.4133782387 59.679534912 105.61490631 0.0583500005 0.0913899988 0.1527100056
 0.1316699982 0.0909399986 0.0335500017 1.3995599747 32.309078217 31.534809113
 32.908100128 32.411300659 32.009269714 27.312229156 138.53370667 3.3847398758
 20.266891479 2.0941998959 -440.6295166 2.5537190437
 740.05440000
 6.4133782387 59.540699005 105.02667236 0.0595699996 0.0925699994 0.1533100009
 0.1246400028 0.0839700028 0.0296999998 1.3989700079 32.432838440 32.008880615
 33.627948761 33.059131622 32.668510437 29.462110519 139.87350464 3.3557701111
 20.402608871 2.1972401142 -441.1563110 2.5517108440
 740.20680000
 6.4361853600 59.805267334 105.81696320 0.0581500009 0.0912000015 0.1637399942
 0.1182200015 0.0776000023 0.0263400003 1.3973100185 31.509489059 31.478820801
 32.748970032 32.256458282 31.914899826 35.209480286 137.14610291 3.3346102238
 19.779510498 2.2349600792 -440.5579834 2.5540530682
 740.35920000
 6.4589881897 60.281761169 106.33094788 0.0598200001 0.0928099975 0.1532199979
 0.1260699928 0.0853900015 0.0304700006 1.3956500292 30.652309418 31.026720047
 31.712930679 31.376579285 31.086910248 34.529388428 134.54559326 3.2888901234
 19.348970413 2.1875801086 -440.2588806 2.5513019562
 740.51160000
 6.4589881897 59.758689880 105.58058929 0.0605099984 0.0934699997 0.1677400023
 0.1407400072 0.0999400020 0.0388000011 1.3969899416 29.789749146 30.543760300
 30.948049545 30.653179169 30.483190536 23.083669662 131.43690491 3.2210600376
 18.113180161 2.4496800900 -443.3125000 2.5501589775
