# LAS format log file from PETREL
# Project units are specified as depth units
#==================================================================
~Version information
VERS.   2.0:
WRAP.   NO:
#==================================================================
~Well
STRT .m      197.51040000 :
STOP .m      951.89040000 :
STEP .m     0.15240000 :
NULL .        -999.250000 :
COMP.           : COMPANY
WELL.  P-135   : WELL
FLD.            : FIELD
LOC.            : LOCATION
SRVC.           : SERVICE COMPANY
DATE.  2014-09-16 16:30:35   : Log Export Date {yyyy-MM-dd HH:mm:ss}
PROV.           : PROVINCE
UWI.      : UNIQUE WELL ID
API.            : API NUMBER
#==================================================================
~Curve
DEPT .m                   : DEPTH
Sonic_despiked .us/ft     : Sonic_despiked
RHOB_despiked .g/cm3      : RHOB_despiked
TWT .ms                   : TWT
~Parameter
#==================================================================
~Ascii
# ...
 795.83280000 60.352554321 2.6374709606 286.70135498
 795.98520000 60.362541199 2.6466088295 286.76126099
 796.13760000 60.372524261 2.6520140171 286.82116699
 796.29000000 60.382511139 2.6536731720 286.88107300
 796.44240000 60.392498016 2.6458611488 286.94097900
 796.59480000 60.402484894 2.6418640614 287.00088501
 796.74720000 60.412467957 2.6410830021 287.06079102
 796.89960000 60.422454834 2.6403021812 287.12069702
 797.05200000 60.432441711 2.6395211220 287.18060303
 797.20440000 60.442428589 2.6387400627 287.24050903
 797.35680000 60.452411652 2.6477320194 287.30041504
 797.50920000 60.462398529 2.6504857540 287.36035156
 797.66160000 60.472385406 2.6532394886 287.42041016
 797.81400000 60.482372284 2.6559932232 287.48049927
 797.96640000 60.492355347 2.6507108212 287.54058838
 798.11880000 60.502342224 2.6494052410 287.60067749
 798.27120000 60.521118164 2.6480996609 287.66076660
 798.42360000 60.512599945 2.6467943192 287.72085571
 798.57600000 60.504081726 2.6454887390 287.78094482
 798.72840000 60.495567322 2.6441831589 287.84103394
 798.88080000 60.487049103 2.6520950794 287.90109253
 799.03320000 60.478530884 2.6528029442 287.96118164
 799.18560000 60.470012665 2.6396842003 288.02127075
 799.33800000 60.461498260 2.6384301186 288.08135986
 799.49040000 60.452980042 2.6371760368 288.14144897
 799.64280000 60.444461823 2.6431829929 288.20153809
 799.79520000 60.459609985 2.6498458385 288.26162720
 799.94760000 60.368289948 2.6506698132 288.32171631
 800.10000000 60.352180481 2.6491930485 288.38180542
 800.25240000 60.336071014 2.6541268826 288.44186401
 800.40480000 60.319957733 2.6553261280 288.50195313
 800.55720000 60.303848267 2.6565256119 288.56204224
 800.70960000 60.287738800 2.6577248573 288.62213135
 800.86200000 60.271629333 2.6589241028 288.68222046
 801.01440000 60.255516052 2.6586360931 288.74230957
 801.16680000 60.239406586 2.6559131145 288.80239868
 801.31920000 60.223297119 2.6503930092 288.86248779
 801.47160000 60.403205872 2.6547350883 288.92257690
 801.62400000 60.406700134 2.6566369534 288.98263550
 801.77640000 60.410190582 2.6532590389 289.04272461
 801.92880000 60.413681030 2.6510128975 289.10281372
 802.08120000 60.417175293 2.6496999264 289.16290283
 802.23360000 60.420665741 2.6544928551 289.22299194
 802.38600000 60.424156189 2.6570520401 289.28308105
 802.53840000 60.427650452 2.6551260948 289.34317017
 802.69080000 60.431140900 2.6457209587 289.40325928
 802.84320000 60.358127594 2.6365420818 289.46334839
 802.99560000 60.357593536 2.6344780922 289.52340698
 803.14800000 60.257892609 2.6444251537 289.58349609
 803.30040000 60.284263611 2.6454503536 289.64358521
 803.45280000 60.310638428 2.6464755535 289.70367432
 803.60520000 60.337009430 2.6475005150 289.76376343
 803.75760000 60.363384247 2.6485257149 289.82385254
 803.91000000 60.061389923 2.6495509148 289.88394165
 804.06240000 60.056289673 2.6354131699 289.94403076
 804.21480000 60.051189423 2.6323680878 290.00408936
 804.36720000 60.046089172 2.6293230057 290.06417847
 804.51960000 60.040988922 2.6421279907 290.12426758
 804.67200000 60.035888672 2.6315491199 290.18435669
 804.82440000 60.030788422 2.6348857880 290.24444580
 804.97680000 60.025688171 2.6382226944 290.30453491
 805.12920000 60.020587921 2.6415593624 290.36462402
 805.28160000 60.015487671 2.6448960304 290.42471313
 805.43400000 60.010387421 2.6445155144 290.48480225
 805.58640000 60.005287170 2.6471087933 290.54486084
 805.73880000 60.000190735 2.6384019852 290.60494995
 805.89120000 59.995090485 2.6412980556 290.66503906
 806.04360000 59.989990234 2.6468758583 290.72512817
 806.19600000 59.984889984 2.6483950615 290.78521729
 806.34840000 59.979789734 2.6411001682 290.84530640
 806.50080000 59.974689484 2.6358587742 290.90539551
 806.65320000 59.969589233 2.6319231987 290.96548462
 806.80560000 59.964488983 2.6275200844 291.02557373
 806.95800000 59.959388733 2.6262199879 291.08563232
 807.11040000 59.954288483 2.6242718697 291.14572144
 807.26280000 59.949188232 2.6266570091 291.20581055
 807.41520000 59.944087982 2.6178929806 291.26589966
 807.56760000 59.938987732 2.6218888760 291.32598877
 807.72000000 59.910785675 2.6258850098 291.38607788
 807.87240000 59.879955292 2.6428768635 291.44616699
 808.02480000 59.849121094 2.6451740265 291.50625610
 808.17720000 59.818290710 2.6356549263 291.56634521
 808.32960000 59.787460327 2.6208760738 291.62640381
 808.48200000 59.756626129 2.6188299656 291.68649292
 808.63440000 59.725795746 2.6250371933 291.74658203
 808.78680000 59.694965363 2.6373369694 291.80667114
 808.93920000 59.664131165 2.6376719475 291.86676025
 809.09160000 59.633300781 2.6380071640 291.92684937
 809.24400000 59.643886566 2.6381349564 291.98693848
 809.39640000 59.654476166 2.6387739182 292.04702759
 809.54880000 59.665065765 2.6277108192 292.10708618
 809.70120000 59.675651550 2.6108999252 292.16717529
 809.85360000 59.686241150 2.6137483120 292.22726440
 810.00600000 59.682369232 2.6165966988 292.28735352
 810.15840000 59.678497314 2.6194450855 292.34744263
 810.31080000 59.674621582 2.6261539459 292.40753174
 810.46320000 59.670749664 2.6359920502 292.46762085
 810.61560000 59.666877747 2.6331605911 292.52770996
 810.76800000 59.663005829 2.6303291321 292.58779907
 810.92040000 59.659130096 2.6117179394 292.64785767
 811.07280000 59.655258179 2.6116628647 292.70794678
 811.22520000 59.651386261 2.6116080284 292.76803589
 811.37760000 59.647514343 2.6197299957 292.82812500
 811.53000000 59.643638611 2.6274380684 292.88821411
 811.68240000 59.639766693 2.6273553371 292.94830322
 811.83480000 59.635894775 2.6272726059 293.00839233
 811.98720000 59.632022858 2.6271896362 293.06848145
 812.13960000 59.628147125 2.6271069050 293.12857056
 812.29200000 59.624275208 2.6183030605 293.18862915
 812.44440000 59.620403290 2.6078679562 293.24871826
 812.59680000 59.609279633 2.6016969681 293.30880737
 812.74920000 59.605003357 2.6057369709 293.36889648
 812.90160000 59.600727081 2.6186001301 293.42898560
 813.05400000 59.596450806 2.6261169910 293.48907471
 813.20640000 59.592178345 2.6192409992 293.54916382
 813.35880000 59.587902069 2.6098268032 293.60925293
 813.51120000 59.583625793 2.6038119793 293.66934204
 813.66360000 59.579349518 2.6043860912 293.72940063
 813.81600000 59.540882111 2.5985162258 293.78948975
 813.96840000 59.535289764 2.6010429859 293.84957886
 814.12080000 59.529697418 2.6035699844 293.90966797
 814.27320000 59.524108887 2.6195209026 293.96975708
 814.42560000 59.518516541 2.6209740639 294.02984619
 814.57800000 59.512928009 2.6224269867 294.08993530
 814.73040000 59.507335663 2.6167361736 294.15002441
 814.88280000 59.501747131 2.6095299721 294.21011353
 815.03520000 59.496154785 2.6040668488 294.27017212
 815.18760000 59.490562439 2.6003429890 294.33026123
 815.34000000 59.484973907 2.5966188908 294.39035034
 815.49240000 59.479381561 2.5928950310 294.45043945
 815.64480000 59.473793030 2.5953574181 294.51052856
 815.79720000 59.468200684 2.5931799412 294.57061768
 815.94960000 59.462608337 2.5967822075 294.63070679
 816.10200000 59.457019806 2.5955681801 294.69079590
 816.25440000 59.451427460 2.6054728031 294.75085449
 816.40680000 59.445838928 2.6092739105 294.81094360
 816.55920000 59.440246582 2.6200089455 294.87103271
 816.71160000 59.485771179 2.6153759956 294.93112183
 816.86400000 59.531295776 2.6144039631 294.99121094
 817.01640000 59.576824188 2.6036689281 295.05130005
 817.16880000 59.622348785 2.5989542007 295.11138916
 817.32120000 59.667877197 2.5935139656 295.17147827
 817.47360000 59.658538818 2.5904340744 295.23156738
 817.62600000 59.649200439 2.5899295807 295.29162598
 817.77840000 59.639862061 2.5894250870 295.35171509
 817.93080000 59.630523682 2.5990560055 295.41180420
 818.08320000 59.512878418 2.5983319283 295.47189331
 818.23560000 59.395236969 2.5976076126 295.53198242
 818.38800000 59.407569885 2.5968832970 295.59207153
 818.54040000 59.419902802 2.5961592197 295.65216064
 818.69280000 59.432235718 2.5954349041 295.71224976
