# LAS format log file from PETREL
# Project units are specified as depth units
#==================================================================
~Version information
VERS.   2.0:
WRAP.   YES:
#==================================================================
~Well
STRT .m      197.51040000 :
STOP .m      951.89040000 :
STEP .m     0.15240000 :
NULL .        -999.250000 :
COMP            .                Eastrock Resources LTD.   :COMPANY
WELL            .                Eastrock Lauren #1        :WELL NAME
FLD             .                        Lauren            :FIELD NAME
RIGN            .                    Foragaz #3            :Rig Name
RIGTYP          .                          Land            :Rig Type
SON             .                    BX61-00001            :Service Order Number
SRVC            .                  Schlumberger            :SERVICE COMPANY
DATE            .                    12/30/2011            :LOG DATE(Composite Date for Composite LAP) (MM/DD/YYYY)
CLAB            .                     Province:            :County Label
CNTY            .                   Nova Scotia            :COUNTY
SLAB            .                                          :State/Province Label
STAT            .                                          :STATE or PROVINCE
PROV            .                                          :STATE or PROVINCE
CTRY            .                        Canada            :COUNTRY
CONT_REGION     .                    N. America            :Continent Region
SECT            .                       -999.25            :Section
TOWN            .                    Springhill            :Township
RANG            .                       -999.25            :Range
API             .                        435655            :API NUMBER
UWI             .                       -999.25            :UNIQUE WELL ID
LUL             .                          CANS            :Logging Unit Location
LUN             .                          2316            :Logging Unit Number
LOC             .                    Springhill            :FIELD LOCATION
FL1             .                                          :Field Location Line 1
FL2             .                       -999.25            :Field Location Line 2
LATI            .deg             45∞ 39' 26.518" N         :LATITUDE
LONG            .deg             64∞ 0' 51.347" W          :LONGITUDE
PDAT            .                            GL            :Local Permanent Datum
LMF             .                            KB            :Logging Measured From
APD             .m                      4.00000            :Elevation of Depth Reference (LMF) Above Permanent Datum
EPD             .m                    119.00000            :Elevation of Permanent Datum (PDAT) above Mean Sea Level
EKB             .m                    123.00000            :Elevation of Kelly Bushing Above Permanent Datum
EDF             .m                    122.70000            :Elevation of Drill Floor Above Permanent Datum
EGL             .m                    119.00000            :Elevation of Ground Level Above Permanent Datum
ECF             .m                      -999.25            :Elevation of Casing Flange above Permanent Datum
#--------------------------------------------------
#==================================================================
~Curve
DEPT .m                   : DEPTH
CALI .in                  : Caliper
DT .us/ft                 : Delta-t P-sonic
DTS .us/ft                : Delta-t Shear-sonic
DPHI_SAN .m3/m3           : Density Porosity (Sandstone)
DPHI_LIM .m3/m3           : Density Porosity (Limestone)
DPHI_DOL .m3/m3           : Density Porosity (Dolomite)
NPHI_SAN .m3/m3           : Enhanced Thermal Neutron Porosity (Sandstone)
NPHI_LIM .m3/m3           : Enhanced Thermal Neutron Porosity (Limestone)
NPHI_DOL .m3/m3           : Enhanced Thermal Neutron Porosity (Dolomite)
AMF .ohm.m                : Array Induction Mud Resistivity Fully Calibrated
AF90 .ohm.m               : Array Induction Four Foot Resistivity A90
AF10 .ohm.m               : Array Induction Four Foot Resistivity A10
AF20 .ohm.m               : Array Induction Four Foot Resistivity A20
AF60 .ohm.m               : Array Induction Four Foot Resistivity A60
AF30 .ohm.m               : Array Induction Four Foot Resistivity A30
RXOZ .ohm.m               : Invaded Formation Resistivity filtered at 18 inches
GR .gAPI                  : Gamma Ray
POTA .gAPI                : POTA (percent)
THOR .gAPI                : THOR (percent)
URAN .gAPI                : URAN (percent)
SP .mV                    : SP
RHOB .g/cm3               : RHOB
~Parameter
#==================================================================
~Ascii
# ...
 308.61000000
 6.3373622894 73.629470825 126.60818481 0.1248700023 0.1555700004 0.2164199948
 0.1882900000 0.1471100003 0.0722299963 1.5402200222 19.323699951 32.680801392
 26.031669617 18.876539230 21.806510925 89.081298828 123.92140198 3.0636501312
 15.209899902 2.6770000458 -433.1940918 2.4439671040
 308.76240000
 6.3449645042 72.869636536 125.62066650 0.1232400015 0.1539999992 0.2269899994
 0.1820500046 0.1409199983 0.0672300011 1.5393099785 18.933160782 32.594249725
 25.806900024 18.818750381 21.598079681 93.111488342 123.72589874 3.1587998867
 14.942230225 2.4990799427 -432.5242920 2.4466569424
 308.91480000
 6.3449645042 72.282035828 124.62509918 0.1159500033 0.1469700038 0.2085299939
 0.1806399971 0.1395300031 0.0661299974 1.5412399769 18.413440704 31.999559402
 25.051359177 18.471639633 21.099210739 101.04900360 127.71600342 3.1396098137
 15.274680138 3.0568900108 -431.8717041 2.4586770535
 309.06720000
 6.3221611977 71.437805176 124.21874237 0.1076800004 0.1389899999 0.2037100047
 0.1757099926 0.1346399933 0.0623500012 1.5431599617 18.120290756 31.272760391
 24.316640854 18.167850494 20.637269974 121.02249908 131.11560059 3.1831998825
 16.007259369 3.1166801453 -431.1710815 2.4723248482
 309.21960000
 6.3221611977 70.884315491 123.83374786 0.1016699970 0.1331900060 0.1940100044
 0.1789299995 0.1378200054 0.0648000017 1.5409599543 17.724250793 30.545829773
 23.519559860 17.787639618 20.076629639 127.41519928 132.21429443 3.1891400814
 16.028499603 3.1739699841 -430.4901123 2.4822440147
 309.37200000
 6.3069567680 70.193611145 123.80238342 0.0922200009 0.1240700036 0.1932000071
 0.1684200019 0.1273999959 0.0569799989 1.5387599468 17.498270035 30.058300018
 22.997060776 17.490310669 19.729799271 108.35710144 135.06559753 3.2250199318
 16.022100449 3.4802699089 -430.4901123 2.4978358746
 309.52440000
 6.3069567680 69.237030029 123.51572418 0.0898300037 0.1217600033 0.1853100061
 0.1670199931 0.1260100007 0.0559699982 1.5378700495 17.511329651 29.876350403
 22.867399216 17.459049225 19.651479721 113.06710052 138.44009399 3.2360599041
 17.177530289 3.4202001095 -431.0312805 2.5017848015
 309.67680000
 6.2537441254 69.190361023 122.95699310 0.0857700035 0.1178499982 0.1738000065
 0.1627099961 0.1217299998 0.0529499985 1.5369900465 17.802059174 30.146860123
 23.157230377 17.638429642 19.868289948 101.33979797 141.05079651 3.3057599068
 17.974529266 3.2467300892 -432.0428162 2.5084829330
 309.82920000
 6.2765474319 70.169044495 122.66934967 0.0941699967 0.1259600073 0.1902000010
 0.1696099937 0.1285800040 0.0578400008 1.5335199833 18.313110352 30.975999832
 23.795089722 18.024599075 20.354749680 90.282318115 141.19940186 3.2821199894
 18.224369049 3.2173600197 -433.9506836 2.4946129322
 309.98160000
 6.3525667191 71.477920532 122.88898468 0.0995199978 0.1311199963 0.1963700056
 0.1783899963 0.1372900009 0.0643900037 1.5300500393 18.607549667 31.797149658
 24.416349411 18.404470444 20.776350021 69.909431458 140.02479553 3.2762300968
 18.410398483 3.1887500286 -435.2500000 2.4857859612
 310.13400000
 6.3107562065 72.702239990 123.74691010 0.1117099971 0.1428699940 0.2189999968
 0.1901800036 0.1489900053 0.0737899989 1.5313199759 18.980230331 32.729568481
 25.100639343 18.780939102 21.262369156 70.115821838 138.38960266 3.2667100430
 17.508628845 3.3099000454 -435.6563110 2.4656851292
 310.28640000
 6.3449645042 72.994606018 124.88272095 0.1155800000 0.1466100067 0.1924600005
 0.1957100034 0.1544699967 0.0784500018 1.5325800180 19.229499817 33.458728790
 25.691930771 19.067640305 21.643619537 80.698936462 137.05130005 3.1643600464
 17.888208389 3.1312799454 -435.4934082 2.4592900276
 310.43880000
 6.3905749321 73.205551147 126.04827881 0.1144300029 0.1455000043 0.2059399933
 0.1899800003 0.1487900019 0.0736199990 1.5332900286 19.339450836 33.771720886
 26.044469833 19.271230698 21.845769882 89.037117004 137.86700439 3.1306300163
 18.220088959 3.2079298496 -434.9933777 2.4611918926
 310.59120000
 6.3753705025 73.358406067 126.49674988 0.1082200035 0.1395100057 0.2134000063
 0.1822399944 0.1411100030 0.0673800036 1.5340000391 19.262540817 33.805591583
 26.123830795 19.180330276 21.832490921 98.052642822 139.70989990 3.1627099514
 19.132740021 2.8749201298 -434.2632141 2.4714331627
 310.74360000
 6.2613463402 72.974418640 126.79433441 0.1063299999 0.1376899928 0.2026900053
 0.1824100018 0.1412799954 0.0675100014 1.5348000526 18.936290741 33.337921143
 25.975870132 18.976329803 21.625909805 100.24150085 140.99600220 3.1546499729
 19.633869171 2.8880999088 -433.1743164 2.4745481014
 310.89600000
 6.3069567680 71.874610901 125.83905792 0.1089000031 0.1401699930 0.2073500007
 0.1803400069 0.1392199993 0.0658899993 1.5355999470 18.432979584 32.673419952
 25.553680420 18.657579422 21.211700439 105.16320038 140.92030334 3.1649298668
 20.462430954 2.6156499386 -432.0346985 2.4703130722
 311.04840000
 6.3449645042 71.055862427 124.21115112 0.1099599972 0.1411900073 0.2057899982
 0.1776700020 0.1365700066 0.0638300031 1.5339399576 17.961429596 32.223678589
 24.940700531 18.253759384 20.664760590 101.75170135 141.26220703 3.2286400795
 20.247789383 2.6069300175 -431.4605103 2.4685699940
 311.20080000
 6.2993545532 70.548828125 122.97454834 0.1068599969 0.1381999999 0.1919299960
 0.1700700074 0.1290400028 0.0581699982 1.5322799683 17.485420227 31.700639725
 24.376020432 17.882230759 20.152360916 89.112266541 143.38259888 3.2303500175
 20.360549927 2.8398098946 -431.3946838 2.4736819267
 311.35320000
 6.3069567680 70.375907898 122.35369873 0.1006300002 0.1321900040 0.1774400026
 0.1690199971 0.1280000061 0.0574100018 1.5350600481 17.187099457 31.582439423
 24.065439224 17.662939072 19.855009079 100.98760223 142.68209839 3.2070398331
 20.112100601 2.9631698132 -431.7013855 2.4839589596
 311.50560000
 6.3221611977 70.642189026 121.77238464 0.0966100022 0.1283099949 0.1930299997
 0.1714300066 0.1303900033 0.0591700003 1.5378299952 17.179370880 32.343311310
 24.216659546 17.664119720 19.899690628 99.869346619 140.00509644 3.1886801720
 19.607450485 2.9073200226 -431.9967041 2.4905929565
 311.65800000
 6.3221611977 69.976104736 121.05942535 0.0919699967 0.1238299981 0.1907400042
 0.1745900065 0.1335200071 0.0615100004 1.5387699604 17.466690063 33.863449097
 24.884719849 17.891490936 20.322280884 100.00170135 141.35240173 3.2604999542
 19.677099228 2.7651498318 -432.5296021 2.4982571602
 311.81040000
 6.3297600746 69.386741638 120.72164917 0.0913700014 0.1232599989 0.1915500015
 0.1687999964 0.1277800053 0.0572500005 1.5397200584 17.950399399 35.915859222
 25.911689758 18.278469086 20.975929260 102.40290070 140.88940430 3.2428801060
 19.678440094 2.6360599995 -433.2951050 2.4992330074
 311.96280000
 6.3221611977 68.084426880 120.31510925 0.0890699998 0.1210300028 0.1842499971
 0.1608500034 0.1198899969 0.0516700000 1.5398099422 18.281530380 38.084949493
 27.057310104 18.678070068 21.688470840 105.20590210 147.11470032 3.4402699471
 20.056329727 2.8345701694 -433.9605103 2.5030419827
 312.11520000
 6.3069567680 67.708297729 120.10738373 0.0885799974 0.1205599979 0.1917099953
 0.1550199986 0.1141000018 0.0477599986 1.5399099588 18.644220352 40.184009552
 28.056659698 18.975419998 22.286430359 115.42050171 143.65840149 3.3351500034
 19.729310989 2.8251800537 -434.6596985 2.5038390160
 312.26760000
 6.3069567680 67.272712708 118.91268921 0.0858799964 0.1179599985 0.1785400063
 0.1539800018 0.1130700037 0.0470799990 1.5406500101 18.778820038 41.838809967
 28.722349167 19.101070404 22.670490265 131.50909424 145.01739502 3.4153599739
 19.830301285 2.8088300228 -435.5395203 2.5082938671
 312.42000000
 6.3221611977 67.255737305 118.65906525 0.0843100026 0.1164399981 0.1744800061
 0.1582999974 0.1173600033 0.0499400012 1.5413999557 18.786069870 42.966140747
 28.978799820 19.105510712 22.788349152 178.66700745 145.17919922 3.4214298725
 19.287069321 3.0671498775 -436.2269897 2.5108840466
 312.57240000
 6.3373622894 68.079002380 119.34236908 0.0902199969 0.1221399978 0.1858299971
 0.1591300070 0.1181899980 0.0505000018 1.5403399467 18.584730148 43.296180725
 28.921909332 19.015399933 22.726230621 146.68530273 144.60830688 3.4660897255
 18.988039017 3.0462298393 -436.7986145 2.5011429787
