# LAS format log file from PETREL
# Project units are specified as depth units
#==================================================================
~Version information
VERS.   2.0:
WRAP.   NO:
#==================================================================
~Well
STRT .m      197.51040000 :
STOP .m      951.89040000 :
STEP .m     0.15240000 :
NULL .        -999.250000 :
COMP.           : COMPANY
WELL.  P-135   : WELL
FLD.            : FIELD
LOC.            : LOCATION
SRVC.           : SERVICE COMPANY
DATE.  2014-09-16 16:30:35   : Log Export Date {yyyy-MM-dd HH:mm:ss}
PROV.           : PROVINCE
UWI.      : UNIQUE WELL ID
API.            : API NUMBER
#==================================================================
~Curve
DEPT .m                   : DEPTH
Sonic_despiked .us/ft     : Sonic_despiked
RHOB_despiked .g/cm3      : RHOB_despiked
TWT .ms                   : TWT
~Parameter
#==================================================================
~Ascii
# ...
 887.88240000 60.512371063 2.5761909485 322.99111938
 888.03480000 60.479724884 2.5792150497 323.05120850
 888.18720000 60.447074890 2.5800495148 323.11129761
 888.33960000 60.414424896 2.5808839798 323.17138672
 888.49200000 60.381778717 2.5790581703 323.23144531
 888.64440000 60.349128723 2.5803711414 323.29153442
 888.79680000 60.316478729 2.5775749683 323.35162354
 888.94920000 60.283832550 2.5705621243 323.41171265
 889.10160000 60.251182556 2.5703706741 323.47180176
 889.25400000 60.218532562 2.5701789856 323.53189087
 889.40640000 60.185886383 2.5859928131 323.59197998
 889.55880000 60.153236389 2.5854046345 323.65206909
 889.71120000 60.120586395 2.5848162174 323.71215820
 889.86360000 60.087940216 2.5842280388 323.77221680
 890.01600000 60.055290222 2.5836396217 323.83230591
 890.16840000 60.279743195 2.5830514431 323.89239502
 890.32080000 60.263164520 2.5824632645 323.95248413
 890.47320000 60.246585846 2.5818748474 324.01257324
 890.62560000 60.230003357 2.5812866688 324.07266235
 890.77800000 60.213424683 2.5806982517 324.13275146
 890.93040000 60.030342102 2.5801100731 324.19284058
 891.08280000 60.005832672 2.5758020878 324.25292969
 891.23520000 59.981323242 2.5671789646 324.31298828
 891.38760000 59.956817627 2.5687813759 324.37307739
 891.54000000 59.932308197 2.5703837872 324.43316650
 891.69240000 59.907798767 2.5719861984 324.49325562
 891.84480000 60.206291199 2.5776431561 324.55334473
 891.99720000 60.128807068 2.5727300644 324.61343384
 892.14960000 60.091487885 2.5662629604 324.67352295
 892.30200000 60.054164886 2.5669014454 324.73361206
 892.45440000 60.016845703 2.5675399303 324.79370117
 892.60680000 59.979522705 2.5704989433 324.85375977
 892.75920000 59.858543396 2.5747308731 324.91384888
 892.91160000 60.012348175 2.5795099735 324.97393799
 893.06400000 59.983482361 2.5801298618 325.03402710
 893.21640000 59.954616547 2.5692710876 325.09411621
 893.36880000 60.015609741 2.5649380684 325.15420532
 893.52120000 60.016693115 2.5703711510 325.21429443
 893.67360000 60.017780304 2.5721585751 325.27438354
 893.82600000 60.018867493 2.5739459991 325.33444214
 893.97840000 59.930675507 2.5757336617 325.39453125
 894.13080000 59.842483521 2.5775210857 325.45462036
 894.28320000 59.854679108 2.5728821754 325.51470947
 894.43560000 59.866874695 2.5677671432 325.57479858
 894.58800000 59.879070282 2.5660669804 325.63488770
 894.74040000 59.891269684 2.5660409927 325.69497681
 894.89280000 59.903465271 2.5603821278 325.75506592
 895.04520000 59.915660858 2.5640370846 325.81515503
 895.19760000 59.873802185 2.5639920235 325.87521362
 895.35000000 59.831943512 2.5711088181 325.93530273
 895.50240000 59.790084839 2.5636079311 325.99539185
 895.65480000 59.799453735 2.5638678074 326.05548096
 895.80720000 59.808826447 2.5664150715 326.11557007
 895.95960000 59.818195343 2.5734150410 326.17565918
 896.11200000 59.827568054 2.5750114918 326.23574829
 896.26440000 59.836936951 2.5766077042 326.29583740
 896.41680000 59.846309662 2.5782041550 326.35592651
 896.56920000 59.855678558 2.5609850883 326.41598511
 896.72160000 59.832881927 2.5638043880 326.47607422
 896.87400000 59.859416962 2.5666239262 326.53616333
 897.02640000 59.885951996 2.5694432259 326.59625244
 897.17880000 59.912487030 2.5701708794 326.65634155
 897.33120000 59.939022064 2.5759069920 326.71643066
 897.48360000 59.965557098 2.5783309937 326.77651978
 897.63600000 59.897701263 2.5766658783  -999.250000
 897.78840000 59.908504486 2.5750010014  -999.250000
 897.94080000 59.919307709 2.5733358860  -999.250000
 898.09320000 59.930110931 2.5609331131  -999.250000
 898.24560000 60.003356934 2.5554561615  -999.250000
 898.39800000 60.076599121 2.5590109825  -999.250000
 898.55040000 60.149841309 2.5569069386  -999.250000
 898.70280000 60.157287598 2.5546026230  -999.250000
 898.85520000 60.164733887 2.5522985458  -999.250000
 899.00760000 60.172176361 2.5539991856  -999.250000
 899.16000000 60.179622650 2.5556998253  -999.250000
 899.31240000 60.100521088 2.5574004650  -999.250000
 899.46480000 60.090660095 2.5591011047  -999.250000
 899.61720000 60.080795288 2.5607390404  -999.250000
 899.76960000 60.070930481 2.5627269745  -999.250000
 899.92200000 60.158069611 2.5641288757  -999.250000
 900.07440000 60.100402832 2.5670320988  -999.250000
 900.22680000 60.065658569 2.5625810623  -999.250000
 900.37920000 60.065078735 2.5602459908  -999.250000
 900.53160000 60.064498901 2.5543580055  -999.250000
 900.68400000 60.063919067 2.5620858669  -999.250000
 900.83640000 60.125125885 2.5617880821  -999.250000
 900.98880000 60.186328888 2.5614902973  -999.250000
 901.14120000 60.352230072 2.5611925125  -999.250000
 901.29360000 60.302730560 2.5608947277  -999.250000
 901.44600000 60.412578583 2.5605969429  -999.250000
 901.59840000 60.415672302 2.5602991581  -999.250000
 901.75080000 60.418769836 2.5534839630  -999.250000
 901.90320000 60.421867371 2.5593888760  -999.250000
 902.05560000 60.424961090 2.5646297932  -999.250000
 902.20800000 60.428054810 2.5608010292  -999.250000
 902.36040000 60.431152344 2.5606751442  -999.250000
 902.51280000 60.434249878 2.5596880913  -999.250000
 902.66520000 60.437343597 2.5509679317  -999.250000
 902.81760000 60.440437317 2.5496878624  -999.250000
 902.97000000 60.443534851 2.5501737595  -999.250000
 903.12240000 60.446632385 2.5506598949  -999.250000
 903.27480000 60.449726105 2.5511460304  -999.250000
 903.42720000 60.452819824 2.5516319275  -999.250000
 903.57960000 60.455917358 2.5521178246  -999.250000
 903.73200000 60.459014893 2.5526039600  -999.250000
 903.88440000 60.462108612 2.5576641560  -999.250000
 904.03680000 60.887092590 2.5619518757  -999.250000
 904.18920000 60.656238556 2.5600628853  -999.250000
 904.34160000 60.619937897 2.5585219860  -999.250000
 904.49400000 60.583633423 2.5525629520  -999.250000
 904.64640000 60.691627502 2.5537550449  -999.250000
 904.79880000 60.703422546 2.5549468994  -999.250000
 904.95120000 60.715217590 2.5561389923  -999.250000
 905.10360000 60.579582214 2.5591759682  -999.250000
 905.25600000 60.643478394 2.5573630333  -999.250000
 905.40840000 60.707370758 2.5582315922  -999.250000
 905.56080000 60.771266937 2.5591003895  -999.250000
 905.71320000 60.835159302 2.5599689484  -999.250000
 905.86560000 60.899055481 2.5735740662  -999.250000
 906.01800000 60.962947845 2.5779540539  -999.250000
 906.17040000 61.026844025 2.5726931095  -999.250000
 906.32280000 60.779129028 2.5789370537  -999.250000
 906.47520000 60.799900055 2.5783588886  -999.250000
 906.62760000 60.820671082 2.5712151527  -999.250000
 906.78000000 60.841445923 2.5584390163  -999.250000
 906.93240000 60.862216949 2.5658500195  -999.250000
 907.08480000 60.882987976 2.5674436092  -999.250000
 907.23720000 60.903759003 2.5690374374  -999.250000
 907.38960000 60.924530029 2.5706310272  -999.250000
 907.54200000 60.945304871 2.5722246170  -999.250000
 907.69440000 60.966075897 2.5738184452  -999.250000
 907.84680000 60.986846924 2.5754120350  -999.250000
 907.99920000 60.846614838 2.5653250217  -999.250000
 908.15160000 60.828979492 2.5639259815  -999.250000
 908.30400000 60.811340332 2.5743319988  -999.250000
 908.45640000 60.793704987 2.5850601196  -999.250000
 908.60880000 60.776069641 2.5840179920  -999.250000
 908.76120000 60.758430481 2.5794661045  -999.250000
 908.91360000 60.740795135 2.5795938969  -999.250000
 909.06600000 60.723155975 2.5743830204  -999.250000
 909.21840000 60.705520630 2.5749928951  -999.250000
 909.37080000 60.687885284 2.5777938366  -999.250000
 909.52320000 60.670246124 2.5837581158  -999.250000
 909.67560000 60.652610779 2.5825309753  -999.250000
 909.82800000 60.648220062 2.5792100430  -999.250000
 909.98040000 60.618198395 2.5758910179  -999.250000
 910.13280000 60.588176727 2.5636570454  -999.250000
 910.28520000 60.558155060 2.5639717579  -999.250000
 910.43760000 60.857677460 2.5642864704  -999.250000
 910.59000000 60.865695953 2.5646011829  -999.250000
 910.74240000 60.692783356 2.5690901279  -999.250000
