# LAS format log file from PETREL
# Project units are specified as depth units
#==================================================================
~Version information
VERS.   2.0:
WRAP.   YES:
#==================================================================
~Well
STRT .m      197.51040000 :
STOP .m      951.89040000 :
STEP .m     0.15240000 :
NULL .        -999.250000 :
COMP            .                Eastrock Resources LTD.   :COMPANY
WELL            .                Eastrock Lauren #1        :WELL NAME
FLD             .                        Lauren            :FIELD NAME
RIGN            .                    Foragaz #3            :Rig Name
RIGTYP          .                          Land            :Rig Type
SON             .                    BX61-00001            :Service Order Number
SRVC            .                  Schlumberger            :SERVICE COMPANY
DATE            .                    12/30/2011            :LOG DATE(Composite Date for Composite LAP) (MM/DD/YYYY)
CLAB            .                     Province:            :County Label
CNTY            .                   Nova Scotia            :COUNTY
SLAB            .                                          :State/Province Label
STAT            .                                          :STATE or PROVINCE
PROV            .                                          :STATE or PROVINCE
CTRY            .                        Canada            :COUNTRY
CONT_REGION     .                    N. America            :Continent Region
SECT            .                       -999.25            :Section
TOWN            .                    Springhill            :Township
RANG            .                       -999.25            :Range
API             .                        435655            :API NUMBER
UWI             .                       -999.25            :UNIQUE WELL ID
LUL             .                          CANS            :Logging Unit Location
LUN             .                          2316            :Logging Unit Number
LOC             .                    Springhill            :FIELD LOCATION
FL1             .                                          :Field Location Line 1
FL2             .                       -999.25            :Field Location Line 2
LATI            .deg             45∞ 39' 26.518" N         :LATITUDE
LONG            .deg             64∞ 0' 51.347" W          :LONGITUDE
PDAT            .                            GL            :Local Permanent Datum
LMF             .                            KB            :Logging Measured From
APD             .m                      4.00000            :Elevation of Depth Reference (LMF) Above Permanent Datum
EPD             .m                    119.00000            :Elevation of Permanent Datum (PDAT) above Mean Sea Level
EKB             .m                    123.00000            :Elevation of Kelly Bushing Above Permanent Datum
EDF             .m                    122.70000            :Elevation of Drill Floor Above Permanent Datum
EGL             .m                    119.00000            :Elevation of Ground Level Above Permanent Datum
ECF             .m                      -999.25            :Elevation of Casing Flange above Permanent Datum
#--------------------------------------------------
#==================================================================
~Curve
DEPT .m                   : DEPTH
CALI .in                  : Caliper
DT .us/ft                 : Delta-t P-sonic
DTS .us/ft                : Delta-t Shear-sonic
DPHI_SAN .m3/m3           : Density Porosity (Sandstone)
DPHI_LIM .m3/m3           : Density Porosity (Limestone)
DPHI_DOL .m3/m3           : Density Porosity (Dolomite)
NPHI_SAN .m3/m3           : Enhanced Thermal Neutron Porosity (Sandstone)
NPHI_LIM .m3/m3           : Enhanced Thermal Neutron Porosity (Limestone)
NPHI_DOL .m3/m3           : Enhanced Thermal Neutron Porosity (Dolomite)
AMF .ohm.m                : Array Induction Mud Resistivity Fully Calibrated
AF90 .ohm.m               : Array Induction Four Foot Resistivity A90
AF10 .ohm.m               : Array Induction Four Foot Resistivity A10
AF20 .ohm.m               : Array Induction Four Foot Resistivity A20
AF60 .ohm.m               : Array Induction Four Foot Resistivity A60
AF30 .ohm.m               : Array Induction Four Foot Resistivity A30
RXOZ .ohm.m               : Invaded Formation Resistivity filtered at 18 inches
GR .gAPI                  : Gamma Ray
POTA .gAPI                : POTA (percent)
THOR .gAPI                : THOR (percent)
URAN .gAPI                : URAN (percent)
SP .mV                    : SP
RHOB .g/cm3               : RHOB
~Parameter
#==================================================================
~Ascii
# ...
 452.62800000
 6.3221611977 57.081081390 100.59973145 0.0497899987 0.0831300020 0.1434299946
 0.0891000032 0.0487099998 0.0128100002 1.4805300236 28.018960953 60.800128937
 42.824199677 28.995809555 33.662220001 117.65029907 162.36169434 3.9959199429
 23.172540665 2.3368899822 -408.5346985 2.5678410530
 452.78040000
 6.3069567680 59.527591705 102.75387573 0.0517200008 0.0850000009 0.1561200023
 0.0917600021 0.0513500012 0.0139400000 1.4795700312 24.428579330 50.718070984
 36.098411560 24.853820801 28.616830826 97.457572937 161.16099548 3.9574797153
 22.411569595 2.6818699837 -410.8717041 2.5646541119
 452.93280000
 6.3525667191 62.536151886 105.16825104 0.0688600019 0.1015300006 0.1678999960
 0.1222399995 0.0815799981 0.0284199994 1.4786100388 21.176799774 42.172050476
 30.219259262 21.297029495 24.297279358 68.221603394 155.70359802 3.7625100613
 21.684488297 2.6630499363 -412.1285095 2.5363759995
 453.08520000
 6.4133782387 64.292228699 109.31969452 0.0972599983 0.1289400011 0.2092700005
 0.1597799957 0.1188300028 0.0509399995 1.4790199995 18.523279190 35.234611511
 25.716600418 18.522289276 20.986059189 69.557533264 146.42860413 3.5625200272
 20.101598740 2.5335400105 -411.7993164 2.4895191193
 453.23760000
 6.4133782387 65.491706848 112.20187378 0.1155000031 0.1465400010 0.2188899964
 0.1798399985 0.1387300044 0.0654999986 1.4794399738 16.455839157 29.996610641
 22.279119492 16.269269943 18.415500641 71.581588745 140.30569458 3.2779600620
 19.105020523 2.9023900032 -411.1283264 2.4594199657
 453.39000000
 6.4513897896 66.861083984 116.33335114 0.1176600009 0.1486199945 0.2140199989
 0.1675399989 0.1265199929 0.0563500002 1.4788800478 14.844499588 25.962860107
 19.606889725 14.590330124 16.417560577 103.00640106 135.29820251 3.2662601471
 17.920259476 2.6507999897 -410.5000000 2.4558589458
 453.54240000
 6.4513897896 68.012763977 118.29129791 0.1068499982 0.1381900012 0.1864500046
 0.1523299962 0.1114400029 0.0460099988 1.4783200026 13.397299767 22.785940170
 17.427610397 13.101810455 14.699170113 122.20649719 136.42480469 3.2751798630
 17.315029144 3.0336599350 -410.1910095 2.4736990929
 453.69480000
 6.3905749321 68.015327454 119.69456482 0.0988299996 0.1304499954 0.1891999990
 0.1588300020 0.1178900003 0.0502999984 1.4783300161 12.205249786 20.184019089
 15.543129921 11.894619942 13.217530251 105.28869629 135.83650208 3.2865698338
 17.367090225 2.7674601078 -410.2006836 2.4869241714
 453.84720000
 6.4589881897 67.919654846 119.43124390 0.0976499990 0.1293099970 0.2035100013
 0.1752099991 0.1341399997 0.0619699992 1.4783300161 11.235790253 18.252880096
 14.127809525 10.894370079 12.065349579 86.105766296 138.86630249 3.3904101849
 17.299581528 3.0761101246 -410.1805115 2.4888730049
 453.99960000
 6.4741930962 67.762863159 119.03336334 0.0978899971 0.1295399964 0.2019300014
 0.1874700040 0.1463000029 0.0715600029 1.4804500341 10.650529861 17.139129639
 13.283550262 10.315819740 11.383580208 80.525497437 137.60879517 3.3413600922
 16.875120163 3.1307399273 -410.2171021 2.4884889126
 454.15200000
 6.4589881897 67.983230591 119.12108612 0.0995699987 0.1311600059 0.1914100051
 0.1880100071 0.1468300074 0.0719999969 1.4825799465 10.458189964 16.952989578
 12.949390411 10.073249817 11.134670258 90.254493713 140.40100098 3.3436000347
 16.775289536 3.4320697784 -410.6735840 2.4857108593
 454.30440000
 6.4589881897 69.189079285 120.39182281 0.0990900025 0.1307000071 0.1863400042
 0.1791899949 0.1380899996 0.0649999976 1.4836699963 10.564869881 17.332750320
 13.070449829 10.146880150 11.263429642 86.922157288 139.42320251 3.3052198887
 16.271709442 3.7066600323 -411.3438110 2.4865071774
 454.45680000
 6.4437870979 69.049087524 120.11569977 0.1027999967 0.1342799962 0.1969899982
 0.1755799949 0.1345099956 0.0622499995 1.4847700596 10.836700439 18.001850128
 13.437330246 10.374859810 11.567560196 83.592697144 140.65859985 3.3110997677
 15.610410690 3.9866199493 -411.6596985 2.4803798199
 454.60920000
 6.4437870979 68.756660461 120.60877991 0.1128600016 0.1439899951 0.2140100002
 0.1775400043 0.1364399940 0.0637300014 1.4857200384 11.126230240 18.173200607
 13.759730339 10.570590019 11.861209869 77.352996826 139.87359619 3.3966400623
 15.526320457 3.6660799980 -411.7434082 2.4637730122
 454.76160000
 6.4437870979 68.026237488 120.50782776 0.1171900034 0.1481699944 0.2287900001
 0.1801099926 0.1389999986 0.0657199994 1.4866800308 11.314490318 18.561620712
 14.014570236 10.817569733 12.135510445 80.867248535 146.28819275 3.6089100838
 16.586328506 3.5384500027 -411.8471985 2.4566349983
 454.91400000
 6.3525667191 67.558586121 119.82885742 0.1133499965 0.1444599926 0.2249500006
 0.1725099981 0.1314599961 0.0599600002 1.4857300520 11.441530228 18.696350098
 14.227930069 11.004920006 12.353489876 102.43569946 149.61289978 3.7861001492
 16.936130524 3.3674099445 -412.0000000 2.4629728794
 455.06640000
 6.2765474319 67.217544556 119.55677032 0.0959199965 0.1276499927 0.1699600071
 0.1553100049 0.1143999994 0.0479499996 1.4847899675 11.551650047 18.690509796
 14.308939934 11.249469757 12.487110138 132.61570740 154.72270203 3.8074200153
 18.178039551 3.5447199345 -411.9653015 2.4917240143
 455.21880000
 6.2993545532 67.340530396 118.62858582 0.0906800032 0.1225899979 0.1658399999
 0.1577699929 0.1168299988 0.0495899990 1.4823600054 11.739049911 18.662439346
 14.448920250 11.513959885 12.700229645 134.76640320 149.37019348 3.6830801964
 17.900251389 3.2813000679 -411.8958130 2.5003731251
 455.37120000
 6.3677678108 67.698730469 118.06333160 0.0915900022 0.1234600022 0.1925400048
 0.1696799994 0.1286499947 0.0578900017 1.4799200296 12.175990105 18.929979324
 14.807100296 12.001099586 13.136590004 104.25980377 142.46069336 3.4992799759
 16.375059128 3.5162398815 -411.1041870 2.4988830090
 455.52360000
 6.4057798386 68.626144409 118.40803528 0.0983999968 0.1300400048 0.2075999975
 0.1800500005 0.1389400065 0.0656599998 1.4778699875 12.905090332 19.637729645
 15.511389732 12.778880119 13.896249771 100.58920288 132.27630615 3.1834502220
 15.761879921 3.1743199825 -409.5296021 2.4876379967
 455.67600000
 6.4361853600 68.678298950 119.76345062 0.1048899963 0.1362999976 0.2111400068
 0.1792500019 0.1381500065 0.0650499985 1.4758199453 13.942799568 20.880270004
 16.536750793 13.855310440 14.956119537 99.314376831 132.17869568 3.1547799110
 15.398300171 3.4819200039 -407.2082825 2.4769279957
 455.82840000
 6.4133782387 68.008651733 121.11885834 0.1067899987 0.1381299943 0.2022700012
 0.1723099947 0.1312599927 0.0598100014 1.4772399664 15.309470177 22.546989441
 17.870719910 15.249489784 16.314359665 82.044532776 135.68269348 3.1355001926
 16.614728928 3.5881700516 -406.5417175 2.4737999439
 455.98080000
 6.3449645042 66.933105469 116.73736572 0.1048299968 0.1362400055 0.1887699962
 0.1568900049 0.1159600019 0.0489999987 1.4786700010 17.102159500 24.316059113
 19.593280792 16.969249725 18.052349091 82.130737305 145.10200500 3.2527201176
 17.597131729 4.0688500404 -406.5208130 2.4770238400
 456.13320000
 6.2993545532 64.988662720 113.30500793 0.0921299979 0.1239899993 0.1795500070
 0.1372199953 0.0964400023 0.0367299989 1.4783500433 19.226470947 26.699890137
 21.657239914 18.989280701 20.139310837 59.275829315 152.24389648 3.3819799423
 19.366270065 3.9743800163 -405.8020935 2.4979820251
 456.28560000
 6.3069567680 63.600574493 111.79890442 0.0802600011 0.1125300005 0.1715500057
 0.1200800017 0.0794399977 0.0272899996 1.4780299664 21.703939438 29.026409149
 24.199440002 21.411569595 22.653999329 55.520740509 157.14509583 3.4612998962
 19.751819611 4.3798599243 -405.6007080 2.5175709724
 456.43800000
 6.2765474319 61.867813110 108.21384430 0.0713099986 0.1039000005 0.1736299992
 0.1147399992 0.0741500035 0.0245800000 1.4804699421 24.336469650 30.930770874
 26.926349640 24.050659180 25.402009964 44.464290619 161.57910156 3.4329299927
 20.380470276 4.7526302338 -405.4375000 2.5323379040
 456.59040000
 6.2765474319 61.097064972 106.52635193 0.0671899989 0.0999199972 0.1665199995
 0.1101299971 0.0695800036 0.0223099999 1.4829200506 26.626720428 31.934940338
 29.154680252 26.377830505 27.769760132 47.938201904 164.26049805 3.4435000420
 21.259889603 4.7353701591 -404.8610840 2.5391321182
