# LAS format log file from PETREL
# Project units are specified as depth units
#==================================================================
~Version information
VERS.   2.0:
WRAP.   YES:
#==================================================================
~Well
STRT .m      197.51040000 :
STOP .m      951.89040000 :
STEP .m     0.15240000 :
NULL .        -999.250000 :
COMP            .                Eastrock Resources LTD.   :COMPANY
WELL            .                Eastrock Lauren #1        :WELL NAME
FLD             .                        Lauren            :FIELD NAME
RIGN            .                    Foragaz #3            :Rig Name
RIGTYP          .                          Land            :Rig Type
SON             .                    BX61-00001            :Service Order Number
SRVC            .                  Schlumberger            :SERVICE COMPANY
DATE            .                    12/30/2011            :LOG DATE(Composite Date for Composite LAP) (MM/DD/YYYY)
CLAB            .                     Province:            :County Label
CNTY            .                   Nova Scotia            :COUNTY
SLAB            .                                          :State/Province Label
STAT            .                                          :STATE or PROVINCE
PROV            .                                          :STATE or PROVINCE
CTRY            .                        Canada            :COUNTRY
CONT_REGION     .                    N. America            :Continent Region
SECT            .                       -999.25            :Section
TOWN            .                    Springhill            :Township
RANG            .                       -999.25            :Range
API             .                        435655            :API NUMBER
UWI             .                       -999.25            :UNIQUE WELL ID
LUL             .                          CANS            :Logging Unit Location
LUN             .                          2316            :Logging Unit Number
LOC             .                    Springhill            :FIELD LOCATION
FL1             .                                          :Field Location Line 1
FL2             .                       -999.25            :Field Location Line 2
LATI            .deg             45∞ 39' 26.518" N         :LATITUDE
LONG            .deg             64∞ 0' 51.347" W          :LONGITUDE
PDAT            .                            GL            :Local Permanent Datum
LMF             .                            KB            :Logging Measured From
APD             .m                      4.00000            :Elevation of Depth Reference (LMF) Above Permanent Datum
EPD             .m                    119.00000            :Elevation of Permanent Datum (PDAT) above Mean Sea Level
EKB             .m                    123.00000            :Elevation of Kelly Bushing Above Permanent Datum
EDF             .m                    122.70000            :Elevation of Drill Floor Above Permanent Datum
EGL             .m                    119.00000            :Elevation of Ground Level Above Permanent Datum
ECF             .m                      -999.25            :Elevation of Casing Flange above Permanent Datum
#--------------------------------------------------
#==================================================================
~Curve
DEPT .m                   : DEPTH
CALI .in                  : Caliper
DT .us/ft                 : Delta-t P-sonic
DTS .us/ft                : Delta-t Shear-sonic
DPHI_SAN .m3/m3           : Density Porosity (Sandstone)
DPHI_LIM .m3/m3           : Density Porosity (Limestone)
DPHI_DOL .m3/m3           : Density Porosity (Dolomite)
NPHI_SAN .m3/m3           : Enhanced Thermal Neutron Porosity (Sandstone)
NPHI_LIM .m3/m3           : Enhanced Thermal Neutron Porosity (Limestone)
NPHI_DOL .m3/m3           : Enhanced Thermal Neutron Porosity (Dolomite)
AMF .ohm.m                : Array Induction Mud Resistivity Fully Calibrated
AF90 .ohm.m               : Array Induction Four Foot Resistivity A90
AF10 .ohm.m               : Array Induction Four Foot Resistivity A10
AF20 .ohm.m               : Array Induction Four Foot Resistivity A20
AF60 .ohm.m               : Array Induction Four Foot Resistivity A60
AF30 .ohm.m               : Array Induction Four Foot Resistivity A30
RXOZ .ohm.m               : Invaded Formation Resistivity filtered at 18 inches
GR .gAPI                  : Gamma Ray
POTA .gAPI                : POTA (percent)
THOR .gAPI                : THOR (percent)
URAN .gAPI                : URAN (percent)
SP .mV                    : SP
RHOB .g/cm3               : RHOB
~Parameter
#==================================================================
~Ascii
# ...
 263.34720000
 6.5426101685 69.602081299 123.97514343 -0.167349994 -0.126389995 -0.049520001
 0.2713699937 0.2295300066 0.1566199958 1.4614599943 110.44450378 125.85729980
 101.94059753 106.03769684 104.50879669 0.0618899986 89.714683533 1.6090499163
 11.223279953 3.2716300488 -277.6607056 2.9261250496
 263.49960000
 6.5388073921 69.651008606 122.35062408 -0.187529996 -0.145860001 -0.067819998
 0.2736099958 0.2317599952 0.1591199934 1.4615000486 110.43969727 125.85520172
 101.93820190 106.02690125 104.50689697 0.0649299994 89.030632019 1.6063600779
 11.228980064 3.2473399639 -277.3838806 2.9594290257
 263.65200000
 6.5426101685 69.605499268 121.52144623 -0.202590004 -0.160400003 -0.083290003
 0.2755900025 0.2337200046 0.1613399982 1.4615499973 110.43270111 125.85359955
 101.93569946 106.01719666 104.50479889 0.0769099966 90.943260193 1.6709599495
 11.231480598 3.3329200745 -278.3500061 2.9842770100
 263.80440000
 6.5426101685 69.280700684 120.67994690 -0.203150004 -0.160929993 -0.075280003
 0.2771599889 0.2352800071 0.1631100029 1.4613200426 110.42530060 125.85119629
 101.93399811 106.00669861 104.50219727 0.1020099968 88.289176941 1.6516300440
 10.634210587 3.3091301918 -278.2053833 2.9851908684
 263.95680000
 6.5426101685 69.086029053 119.89316559 -0.190909997 -0.149120003 -0.064700000
 0.2614899874 0.2197300047 0.1457500011 1.4610799551 110.41529846 125.84799957
 101.93209839 105.99539948 104.49919891 0.1064700037 86.399429321 1.5834599733
 11.417129517 2.8881700039 -276.4732056 2.9649980068
 264.10920000
 6.5502085686 68.630897522 119.46523285 -0.173830003 -0.132650003 -0.039889999
 0.2469100058 0.2052599937 0.1300799996 1.4609299898 110.40309906 125.84559631
 101.93029785 105.98380280 104.49590302 0.0870100036 85.496986389 1.5791999102
 11.629350662 2.5766401291 -275.0791931 2.9368240833
 264.26160000
 6.5426101685 67.966163635 119.21709442 -0.165570006 -0.124669999 -0.020830000
 0.2342599928 0.1927199960 0.1168399975 1.4607800245 110.38829803 125.84480286
 101.93060303 105.97049713 104.49330139 0.0715800002 89.369522095 1.6270399094
 12.509540558 2.4754700661 -274.0758972 2.9231832027
 264.41400000
 6.5502085686 67.790145874 118.81095123 -0.169609994 -0.128570005 -0.047090001
 0.2363499999 0.1948000044 0.1190100014 1.4611300230 110.37129974 125.84249878
 101.93039703 105.95590210 104.48970032 0.0667399988 90.974571228 1.6525100470
 12.895759583 2.4668900967 -272.6429138 2.9298629761
 264.56640000
 6.5426101685 66.797042847 120.05426025 -0.186839998 -0.145199999 -0.063940004
 0.2372899950 0.1957200021 0.1199800000 1.4614700079 110.35050201 125.84349823
 101.92949677 105.93910217 104.48539734 0.0740699992 93.155166626 1.6916900873
 13.198209763 2.5056798458 -272.1917114 2.9582858086
 264.71880000
 6.5502085686 66.326095581 118.79055786 -0.208629996 -0.166219994 -0.088030003
 0.2342199981 0.1926700026 0.1167899966 1.4616500139 110.32479858 125.83999634
 101.92900085 105.92019653 104.47979736 0.0785100013 94.109077454 1.6495399475
 13.301750183 2.6295499802 -273.1429138 2.9942400455
 264.87120000
 6.5502085686 66.480720520 118.80344391 -0.230710000 -0.187519997 -0.112499997
 0.2287600040 0.1872600019 0.1111700013 1.4618300200 110.29419708 125.83470154
 101.92800140 105.89959717 104.47309875 0.0853800029 96.844299316 1.6590399742
 13.588410378 2.9334502220 -274.5875244 3.0306649208
 265.02360000
 6.5445079803 66.244560242 118.65568542 -0.246959999 -0.203209996 -0.108439997
 0.2347799987 0.1932300031 0.1173800007 1.4620200396 110.26159668 125.82910156
 101.92769623 105.87819672 104.46489716 0.0889699981 97.336280823 1.6993298531
 13.424710274 3.1074001789 -277.0892944 3.0574860573
 265.17600000
 6.5502085686 67.436233521 119.32518005 -0.256509990 -0.212420002 -0.131789997
 0.2578999996 0.2161699980 0.1418499947 1.4622000456 110.22789764 125.82250214
 101.92819977 105.85690308 104.45639801 0.0842000023 94.865119934 1.6237699986
 12.948960304 3.1658701897 -279.0207825 3.0732350349
 265.32840000
 6.5502085686 67.804374695 120.53862000 -0.256870002 -0.212770000 -0.124070004
 0.2825500071 0.2406200022 0.1692000031 1.4624400139 110.19519806 125.81349945
 101.92539978 105.83519745 104.44609833 0.0785700008 92.173690796 1.5639801025
 12.682339668 2.9717800617 -280.5625000 3.0738358498
 265.48080000
 6.5502085686 68.916313171 121.52223969 -0.254979998 -0.210950002 -0.111120000
 0.2954899967 0.2534599900 0.1841499954 1.4626699686 110.16519928 125.80519867
 101.92099762 105.81349945 104.43509674 0.0790499970 89.044082642 1.5491000414
 11.890669823 2.9691600800 -281.8079834 3.0707240105
 265.63320000
 6.5502085686 70.048675537 122.29658508 -0.259259999 -0.215079993 -0.122350000
 0.2998799980 0.2578200102 0.1893199980 1.4630800486 110.13500214 125.79740143
 101.91940308 105.78890228 104.42420197 0.0984599963 89.776496887 1.5676699877
 11.569960594 3.2360298634 -283.7874756 3.0777828693
 265.78560000
 6.5502085686 70.109756470 122.77502441 -0.275489986 -0.230729997 -0.147510007
 0.2942500114 0.2522299886 0.1826999933 1.4634900093 110.11049652 125.79049683
 101.91380310 105.76119995 104.41600037 0.1142299995 88.628036499 1.5894100666
 10.949310303 3.4162900448 -285.3750000 3.1045567989
 265.93800000
 6.5502085686 69.999488831 122.59992218 -0.294290006 -0.248870000 -0.162579998
 0.2771599889 0.2352800071 0.1631000042 1.4638400078 110.08979797 125.78559875
 101.90889740 105.73229980 104.40760040 0.1242199987 87.044578552 1.6072399616
 10.310829163 3.4434199333 -286.6204834 3.1355750561
 266.09040000
 6.5502085686 68.932258606 122.09724426 -0.304850012 -0.259070009 -0.166630000
 0.2737900019 0.2319300026 0.1593199968 1.4642000198 110.07089996 125.78019714
 101.90260315 105.70179749 104.40010071 0.0938000008 84.702201843 1.5666499138
 9.8278398514 3.4784100056 -288.5223083 3.1530029774
 266.24280000
 6.5502085686 68.411903381 121.05123138 -0.304789990 -0.259009987 -0.172049999
 0.2693800032 0.2275599986 0.1544100046 1.4645999670 110.04989624 125.77570343
 101.89769745 105.67030334 104.39309692 0.0897499993 85.934837341 1.6158299446
 9.6456098557 3.6000800133 -290.3374939 3.1529030800
 266.39520000
 6.5502085686 66.861442566 120.32797241 -0.298960000 -0.253380001 -0.161709994
 0.2669700086 0.2251700014 0.1517599970 1.4649900198 110.02290344 125.77010345
 101.89140320 105.63909912 104.38619995 0.0866599977 88.711112976 1.7058600187
 9.6285305023 3.7044599056 -293.2291870 3.1432847977
 266.54760000
 6.5502085686 66.159950256 119.84824371 -0.298409998 -0.252849996 -0.145760000
 0.2447600067 0.2031400055 0.1278100014 1.4657100439 109.98789978 125.76039886
 101.88590240 105.60720062 104.37850189 0.1040600017 91.183891296 1.8220498562
 10.043219566 3.5170798302 -296.7750244 3.1423730850
 266.70000000
 6.5502085686 66.601020813 120.20346069 -0.301169991 -0.255519986 -0.160909995
 0.2284100056 0.1869100034 0.1108200029 1.4664299488 109.94629669 125.75000000
 101.88089752 105.57569885 104.37110138 0.1112100035 90.386039734 1.8208301067
 9.8537302017 3.3719398975 -298.9017944 3.1469380856
 266.85240000
 6.5502085686 67.767829895 121.80615997 -0.320930004 -0.274580002 -0.183730006
 0.2251999974 0.1837300062 0.1075399965 1.4677300453 109.89420319 125.73950195
 101.87380219 105.54409790 104.35990143 0.1194799989 87.968467712 1.8344100714
 9.1276397705 3.1941399574 -304.8332825 3.1795270443
 267.00480000
 6.5502085686 69.895973206 122.37561035 -0.396310002 -0.347310007 -0.212760001
 0.2289900035 0.1874900013 0.1114099994 1.4690200090 109.84339905 125.72840118
 101.86820221 105.51309967 104.34950256 0.1196200028 85.306510925 1.8456799984
 8.6501102448 3.0869300365 -322.5458069 3.3039069176
 267.15720000
 6.5578107834 72.265365601 121.58313751 -0.508390009 -0.455469996 -0.347880006
 0.2337100059 0.1921699941 0.1162699983 1.4758599997 109.78959656 125.71800232
 101.86440277 105.48280334 104.33889771 0.1222300008 80.374282837 1.7016999722
 8.0462894440 2.9696700573 -350.5833130 3.4888510704
 267.30960000
 6.5502085686 72.070053101 120.80278778 -0.490770012 -0.438470006 -0.693000019
 0.2422199994 0.2006099969 0.1251399964 1.4826899767 109.73400116 125.70790100
 101.86640167 105.45120239 104.33029938 0.1665499955 77.619338989 1.6455401182
 7.6226701736 2.9192299843 -379.7541809 3.4597780704
